$GPVTG,,T,,M,0.009,N,0.016,K,A*2D
$GPGGA,013402.00,3309.05429,N,11708.73568,W,1,05,3.34,218.1,M,-33.2,M,,*6D
$GPGSA,A,3,09,26,23,16,07,,,,,,,,4.53,3.34,3.05*0E
$GPGSV,3,1,10,03,27,179,,06,01,272,,07,46,284,37,08,16,140,18*7F
$GPGSV,3,2,10,09,60,331,39,16,38,046,38,23,69,083,40,26,11,040,26*7D
$GPGSV,3,3,10,48,48,208,37,51,50,162,38*79
$GPGLL,3309.05429,N,11708.73568,W,013402.00,A,A*7C
$GPRMC,013403.00,A,3309.05398,N,11708.73566,W,0.076,,241216,,,A*64
$GPVTG,,T,,M,0.076,N,0.141,K,A*26
$GPGGA,013403.00,3309.05398,N,11708.73566,W,1,05,3.34,218.3,M,-33.2,M,,*6D
$GPGSA,A,3,09,26,23,16,07,,,,,,,,4.53,3.34,3.05*0E
$GPGSV,3,1,10,03,27,179,,06,01,272,,07,46,284,37,08,16,140,18*7F
$GPGSV,3,2,10,09,60,331,39,16,38,046,38,23,69,083,40,26,11,040,26*7D
$GPGSV,3,3,10,48,48,208,37,51,50,162,37*76
$GPGLL,3309.05398,N,11708.73566,W,013403.00,A,A*7E
$GPRMC,013404.00,A,3309.05357,N,11708.73544,W,0.084,,241216,,,A*6D
$GPVTG,,T,,M,0.084,N,0.156,K,A*2D
$GPGGA,013404.00,3309.05357,N,11708.73544,W,1,05,3.34,218.0,M,-33.2,M,,*6A
$GPGSA,A,3,09,26,23,16,07,,,,,,,,4.53,3.34,3.05*0E
$GPGSV,3,1,10,03,27,179,,06,01,272,,07,46,284,38,08,16,140,18*70
$GPGSV,3,2,10,09,60,331,40,16,38,046,38,23,69,083,40,26,11,040,26*73
$GPGSV,3,3,10,48,48,208,37,51,50,162,37*76
$GPGLL,3309.05357,N,11708.73544,W,013404.00,A,A*7A
$GPRMC,013405.00,A,3309.05355,N,11708.73530,W,0.147,,241216,,,A*63
$GPVTG,,T,,M,0.147,N,0.272,K,A*26
$GPGGA,013405.00,3309.05355,N,11708.73530,W,1,05,3.34,217.9,M,-33.2,M,,*6C
$GPGSA,A,3,09,26,23,16,07,,,,,,,,4.53,3.34,3.05*0E
$GPGSV,3,1,10,03,27,179,,06,01,272,,07,46,284,37,08,16,140,18*7F
$GPGSV,3,2,10,09,60,331,40,16,38,046,38,23,69,083,40,26,11,040,26*73
$GPGSV,3,3,10,48,48,208,37,51,50,162,37*76
$GPGLL,3309.05355,N,11708.73530,W,013405.00,A,A*7A
$GPRMC,013406.00,A,3309.05369,N,11708.73531,W,0.087,,241216,,,A*63
$GPVTG,,T,,M,0.087,N,0.161,K,A*2A
$GPGGA,013406.00,3309.05369,N,11708.73531,W,1,05,3.34,218.1,M,-33.2,M,,*66
$GPGSA,A,3,09,26,23,16,07,,,,,,,,4.53,3.34,3.05*0E
$GPGSV,3,1,10,03,27,179,,06,01,272,,07,46,284,38,08,16,140,18*70
$GPGSV,3,2,10,09,60,331,40,16,38,046,37,23,69,083,40,26,11,040,26*7C
$GPGSV,3,3,10,48,48,208,37,51,50,162,37*76
$GPGLL,3309.05369,N,11708.73531,W,013406.00,A,A*77
$GPRMC,013407.00,A,3309.05386,N,11708.73526,W,0.373,,241216,,,A*6D
$GPVTG,,T,,M,0.373,N,0.690,K,A*2B
$GPGGA,013407.00,3309.05386,N,11708.73526,W,1,05,3.34,218.3,M,-33.2,M,,*62
$GPGSA,A,3,09,26,23,16,07,,,,,,,,4.53,3.34,3.05*0E
$GPGSV,3,1,10,03,27,179,,06,01,272,,07,46,284,37,08,16,140,19*7E
$GPGSV,3,2,10,09,60,331,40,16,38,046,37,23,69,083,40,26,11,040,26*7C
$GPGSV,3,3,10,48,48,208,37,51,50,162,37*76
$GPGLL,3309.05386,N,11708.73526,W,013407.00,A,A*71
$GPRMC,013408.00,A,3309.05390,N,11708.73515,W,0.048,,241216,,,A*6E
$GPVTG,,T,,M,0.048,N,0.088,K,A*2F
$GPGGA,013408.00,3309.05390,N,11708.73515,W,1,05,3.34,218.3,M,-33.2,M,,*6A
$GPGSA,A,3,09,26,23,16,07,,,,,,,,4.53,3.34,3.05*0E
$GPGSV,3,1,10,03,27,179,,06,01,272,,07,46,284,38,08,16,140,19*71
$GPGSV,3,2,10,09,60,331,40,16,38,046,37,23,69,083,39,26,11,040,26*72
$GPGSV,3,3,10,48,48,208,37,51,50,162,38*79
$GPGLL,3309.05390,N,11708.73515,W,013408.00,A,A*79
$GPRMC,013409.00,A,3309.05402,N,11708.73507,W,0.647,,241216,,,A*69
$GPVTG,,T,,M,0.647,N,1.198,K,A*27
$GPGGA,013409.00,3309.05402,N,11708.73507,W,1,05,3.34,218.4,M,-33.2,M,,*63
$GPGSA,A,3,09,26,23,16,07,,,,,,,,4.53,3.34,3.05*0E
$GPGSV,3,1,10,03,27,179,,06,01,272,,07,46,284,38,08,16,140,19*71
$GPGSV,3,2,10,09,60,331,40,16,38,046,37,23,69,083,40,26,11,040,26*7C
$GPGSV,3,3,10,48,48,208,37,51,50,162,37*76
$GPGLL,3309.05402,N,11708.73507,W,013409.00,A,A*77
$GPRMC,013410.00,A,3309.05413,N,11708.73504,W,0.253,,241216,,,A*63
$GPVTG,,T,,M,0.253,N,0.468,K,A*2D
$GPGGA,013410.00,3309.05413,N,11708.73504,W,1,05,3.34,218.3,M,-33.2,M,,*6F
$GPGSA,A,3,09,26,23,16,07,,,,,,,,4.53,3.34,3.05*0E
$GPGSV,3,1,10,03,27,179,,06,01,272,,07,46,284,38,08,16,140,19*71
$GPGSV,3,2,10,09,60,331,40,16,38,046,37,23,69,083,40,26,11,040,26*7C
$GPGSV,3,3,10,48,48,208,37,51,50,162,37*76
$GPGLL,3309.05413,N,11708.73504,W,013410.00,A,A*7C
$GPRMC,013411.00,A,3309.05423,N,11708.73503,W,0.194,,241216,,,A*6E
$GPVTG,,T,,M,0.194,N,0.360,K,A*2A
$GPGGA,013411.00,3309.05423,N,11708.73503,W,1,05,3.34,218.3,M,-33.2,M,,*6A
$GPGSA,A,3,09,26,23,16,07,,,,,,,,4.53,3.34,3.05*0E
$GPGSV,3,1,10,03,27,179,,06,01,272,,07,46,284,38,08,16,140,19*71
$GPGSV,3,2,10,09,60,331,40,16,38,046,37,23,69,083,40,26,11,040,26*7C
$GPGSV,3,3,10,48,48,208,37,51,50,162,37*76
$GPGLL,3309.05423,N,11708.73503,W,013411.00,A,A*79
$GPRMC,013412.00,A,3309.05410,N,11708.73498,W,0.064,,241216,,,A*60
$GPVTG,,T,,M,0.064,N,0.118,K,A*29
$GPGGA,013412.00,3309.05410,N,11708.73498,W,1,05,3.34,218.1,M,-33.2,M,,*68
$GPGSA,A,3,09,26,23,16,07,,,,,,,,4.53,3.34,3.05*0E
$GPGSV,3,1,10,03,27,179,,06,01,272,,07,46,284,38,08,16,140,19*71
$GPGSV,3,2,10,09,60,331,40,16,38,046,37,23,69,083,39,26,11,040,26*72
$GPGSV,3,3,10,48,48,208,37,51,50,162,37*76
$GPGLL,3309.05410,N,11708.73498,W,013412.00,A,A*79
$GPRMC,013413.00,A,3309.05405,N,11708.73496,W,0.122,,241216,,,A*68
$GPVTG,,T,,M,0.122,N,0.225,K,A*27
$GPGGA,013413.00,3309.05405,N,11708.73496,W,1,05,3.34,218.1,M,-33.2,M,,*63
$GPGSA,A,3,09,26,23,16,07,,,,,,,,4.53,3.34,3.05*0E
$GPGSV,3,1,10,03,27,179,,06,01,271,,07,46,284,38,08,16,140,19*72
$GPGSV,3,2,10,09,60,331,40,16,38,046,37,23,69,083,39,26,11,040,26*72
$GPGSV,3,3,10,48,48,208,37,51,50,162,37*76
$GPGLL,3309.05405,N,11708.73496,W,013413.00,A,A*72
$GPRMC,013414.00,A,3309.05413,N,11708.73492,W,0.034,,241216,,,A*6A
$GPVTG,,T,,M,0.034,N,0.062,K,A*20
$GPGGA,013414.00,3309.05413,N,11708.73492,W,1,05,3.34,218.3,M,-33.2,M,,*65
$GPGSA,A,3,09,26,23,16,07,,,,,,,,4.53,3.34,3.05*0E
$GPGSV,3,1,10,03,27,179,,06,01,271,,07,46,285,38,08,16,140,19*73
$GPGSV,3,2,10,09,60,331,40,16,38,046,37,23,69,083,39,26,11,040,26*72
$GPGSV,3,3,10,48,48,208,37,51,50,162,38*79
$GPGLL,3309.05413,N,11708.73492,W,013414.00,A,A*76
$GPRMC,013415.00,A,3309.05429,N,11708.73487,W,0.151,,241216,,,A*64
$GPVTG,,T,,M,0.151,N,0.280,K,A*2C
$GPGGA,013415.00,3309.05429,N,11708.73487,W,1,05,3.34,218.5,M,-33.2,M,,*6F
$GPGSA,A,3,09,26,23,16,07,,,,,,,,4.53,3.34,3.05*0E
$GPGSV,3,1,10,03,27,179,,06,01,271,,07,46,285,38,08,16,140,19*73
$GPGSV,3,2,10,09,60,331,40,16,38,046,37,23,69,083,40,26,11,040,26*7C
$GPGSV,3,3,10,48,48,208,37,51,50,162,37*76
$GPGLL,3309.05429,N,11708.73487,W,013415.00,A,A*7A
$GPRMC,013416.00,A,3309.05436,N,11708.73484,W,0.136,,241216,,,A*6B
$GPVTG,,T,,M,0.136,N,0.251,K,A*21
$GPGGA,013416.00,3309.05436,N,11708.73484,W,1,05,3.34,218.7,M,-33.2,M,,*63
$GPGSA,A,3,09,26,23,16,07,,,,,,,,4.53,3.34,3.06*0D
$GPGSV,3,1,10,03,27,179,,06,01,271,,07,46,285,38,08,16,140,19*73
$GPGSV,3,2,10,09,60,331,40,16,38,046,37,23,69,083,40,26,11,040,26*7C
$GPGSV,3,3,10,48,48,207,37,51,50,162,37*79
$GPGLL,3309.05436,N,11708.73484,W,013416.00,A,A*74
$GPRMC,013417.00,A,3309.05436,N,11708.73484,W,0.102,,241216,,,A*6D
$GPVTG,,T,,M,0.102,N,0.190,K,A*28
$GPGGA,013417.00,3309.05436,N,11708.73484,W,1,05,3.34,218.8,M,-33.2,M,,*6D
$GPGSA,A,3,09,26,23,16,07,,,,,,,,4.53,3.34,3.06*0D
$GPGSV,3,1,10,03,27,179,,06,01,271,,07,46,285,36,08,16,140,19*7D
$GPGSV,3,2,10,09,60,331,39,16,38,046,32,23,69,083,40,26,11,040,26*77
$GPGSV,3,3,10,48,48,207,34,51,50,162,28*74
$GPGLL,3309.05436,N,11708.73484,W,013417.00,A,A*75
$GPRMC,013418.00,A,3309.05435,N,11708.73491,W,0.333,,241216,,,A*65
$GPVTG,,T,,M,0.333,N,0.616,K,A*21
$GPGGA,013418.00,3309.05435,N,11708.73491,W,1,05,3.34,219.0,M,-33.2,M,,*6C
$GPGSA,A,3,09,26,23,16,07,,,,,,,,4.53,3.34,3.06*0D
$GPGSV,3,1,10,03,27,179,,06,01,271,,07,46,285,35,08,16,140,17*70
$GPGSV,3,2,10,09,60,331,35,16,38,046,31,23,69,083,38,26,11,040,25*74
$GPGSV,3,3,10,48,48,207,35,51,50,162,27*7A
$GPGLL,3309.05435,N,11708.73491,W,013418.00,A,A*7D
$GPRMC,013419.00,A,3309.05435,N,11708.73499,W,0.172,,241216,,,A*6B
$GPVTG,,T,,M,0.172,N,0.319,K,A*2C
$GPGGA,013419.00,3309.05435,N,11708.73499,W,1,05,3.34,219.0,M,-33.2,M,,*65
$GPGSA,A,3,09,26,23,16,07,,,,,,,,4.53,3.34,3.06*0D
$GPGSV,3,1,10,03,27,179,,06,01,271,,07,46,285,34,08,16,140,17*71
$GPGSV,3,2,10,09,60,331,37,16,38,046,30,23,69,083,30,26,11,040,22*78
$GPGSV,3,3,10,48,48,207,27,51,50,162,28*76
$GPGLL,3309.05435,N,11708.73499,W,013419.00,A,A*74
$GPRMC,013420.00,A,3309.05436,N,11708.73503,W,0.435,,241216,,,A*66
$GPVTG,,T,,M,0.435,N,0.805,K,A*2C
$GPGGA,013420.00,3309.05436,N,11708.73503,W,1,05,3.34,218.9,M,-33.2,M,,*66
$GPGSA,A,3,09,26,23,16,07,,,,,,,,4.53,3.34,3.06*0D
$GPGSV,3,1,10,03,27,179,,06,01,271,,07,46,285,31,08,16,140,16*75
$GPGSV,3,2,10,09,60,331,28,16,38,046,25,23,69,083,29,26,11,040,18*73
$GPGSV,3,3,10,48,48,207,27,51,50,162,27*79
$GPGLL,3309.05436,N,11708.73503,W,013420.00,A,A*7F
$GPRMC,013421.00,A,3309.05432,N,11708.73500,W,0.124,,241216,,,A*65
$GPVTG,,T,,M,0.124,N,0.230,K,A*25
$GPGGA,013421.00,3309.05432,N,11708.73500,W,1,05,3.34,218.9,M,-33.2,M,,*60
$GPGSA,A,3,09,26,23,16,07,,,,,,,,4.53,3.34,3.06*0D
$GPGSV,3,1,10,03,27,179,,06,01,271,,07,46,285,30,08,16,140,13*71
$GPGSV,3,2,10,09,60,331,30,16,38,046,25,23,69,083,30,26,11,040,15*7F
$GPGSV,3,3,10,48,48,207,27,51,50,162,*7C
$GPGLL,3309.05432,N,11708.73500,W,013421.00,A,A*79
$GPRMC,013422.00,A,3309.05429,N,11708.73502,W,0.382,,241216,,,A*60
$GPVTG,,T,,M,0.382,N,0.707,K,A*2A
$GPGGA,013422.00,3309.05429,N,11708.73502,W,1,05,3.34,219.2,M,-33.2,M,,*61
$GPGSA,A,3,09,26,23,16,07,,,,,,,,4.53,3.34,3.06*0D
$GPGSV,3,1,10,03,27,179,,06,01,271,,07,46,285,29,08,16,140,11*7B
$GPGSV,3,2,10,09,60,331,29,16,38,046,23,23,69,083,30,26,11,040,14*70
$GPGSV,3,3,10,48,48,207,27,51,50,162,*7C
$GPGLL,3309.05429,N,11708.73502,W,013422.00,A,A*72
$GPRMC,013423.00,A,3309.05425,N,11708.73509,W,0.293,,241216,,,A*67
$GPVTG,,T,,M,0.293,N,0.542,K,A*28
$GPGGA,013423.00,3309.05425,N,11708.73509,W,1,04,3.41,219.4,M,-33.2,M,,*62
$GPGSA,A,3,09,23,16,07,,,,,,,,,6.13,3.41,5.09*04
$GPGSV,3,1,10,03,27,179,,06,01,271,,07,46,285,30,08,16,140,11*73
$GPGSV,3,2,10,09,60,331,29,16,38,046,24,23,69,083,30,26,11,040,14*77
$GPGSV,3,3,10,48,48,207,,51,50,162,*79
$GPGLL,3309.05425,N,11708.73509,W,013423.00,A,A*74
$GPRMC,013424.00,A,3309.05422,N,11708.73512,W,0.441,,241216,,,A*64
$GPVTG,,T,,M,0.441,N,0.816,K,A*2D
$GPGGA,013424.00,3309.05422,N,11708.73512,W,1,04,3.41,219.6,M,-33.2,M,,*6A
$GPGSA,A,3,09,23,16,07,,,,,,,,,6.13,3.41,5.09*04
$GPGSV,3,1,10,03,27,179,,06,01,271,,07,46,285,30,08,16,140,11*73
$GPGSV,3,2,10,09,60,331,29,16,38,046,25,23,69,084,30,26,11,040,14*71
$GPGSV,3,3,10,48,48,207,,51,50,162,*79
$GPGLL,3309.05422,N,11708.73512,W,013424.00,A,A*7E
$GPRMC,013425.00,A,3309.05418,N,11708.73514,W,0.258,,241216,,,A*64
$GPVTG,,T,,M,0.258,N,0.478,K,A*27
$GPGGA,013425.00,3309.05418,N,11708.73514,W,1,04,3.41,219.7,M,-33.2,M,,*65
$GPGSA,A,3,09,23,16,07,,,,,,,,,6.13,3.41,5.09*04
$GPGSV,3,1,10,03,27,179,,06,01,271,,07,46,285,29,08,16,140,11*7B
$GPGSV,3,2,10,09,60,331,29,16,38,046,24,23,69,084,30,26,11,040,14*70
$GPGSV,3,3,10,48,48,207,,51,50,162,*79
$GPGLL,3309.05418,N,11708.73514,W,013425.00,A,A*70
$GPRMC,013426.00,A,3309.05403,N,11708.73524,W,0.441,,241216,,,A*60
$GPVTG,,T,,M,0.441,N,0.818,K,A*23
$GPGGA,013426.00,3309.05403,N,11708.73524,W,1,04,3.41,220.0,M,-33.2,M,,*62
$GPGSA,A,3,09,23,16,07,,,,,,,,,6.13,3.41,5.09*04
$GPGSV,3,1,10,03,27,179,,06,01,271,,07,46,285,30,08,16,140,11*73
$GPGSV,3,2,10,09,60,331,30,16,38,046,21,23,69,084,31,26,11,040,*79
$GPGSV,3,3,10,48,48,207,,51,50,162,*79
$GPGLL,3309.05403,N,11708.73524,W,013426.00,A,A*7A
$GPRMC,013427.00,A,3309.05385,N,11708.73539,W,0.491,,241216,,,A*69
$GPVTG,,T,,M,0.491,N,0.910,K,A*27
$GPGGA,013427.00,3309.05385,N,11708.73539,W,1,04,3.41,220.8,M,-33.2,M,,*6E
$GPGSA,A,3,09,23,16,07,,,,,,,,,6.13,3.41,5.09*04
$GPGSV,3,1,10,03,27,179,,06,01,271,,07,46,285,30,08,16,140,09*7A
$GPGSV,3,2,10,09,60,331,30,16,38,046,20,23,69,084,31,26,11,040,*78
$GPGSV,3,3,10,48,48,207,,51,50,162,*79
$GPGLL,3309.05385,N,11708.73539,W,013427.00,A,A*7E
$GPRMC,013428.00,A,3309.05366,N,11708.73545,W,0.664,,241216,,,A*68
$GPVTG,,T,,M,0.664,N,1.229,K,A*2F
$GPGGA,013428.00,3309.05366,N,11708.73545,W,1,04,3.41,220.9,M,-33.2,M,,*66
$GPGSA,A,3,09,23,16,07,,,,,,,,,6.13,3.41,5.09*04
$GPGSV,3,1,10,03,27,179,,06,01,271,,07,46,285,30,08,16,140,09*7A
$GPGSV,3,2,10,09,60,331,30,16,38,046,18,23,69,084,31,26,11,040,*73
$GPGSV,3,3,10,48,48,207,,51,50,162,*79
$GPGLL,3309.05366,N,11708.73545,W,013428.00,A,A*77
$GPRMC,013429.00,A,3309.05355,N,11708.73534,W,0.813,,241216,,,A*61
$GPVTG,,T,,M,0.813,N,1.506,K,A*2B
$GPGGA,013429.00,3309.05355,N,11708.73534,W,1,04,3.41,220.6,M,-33.2,M,,*6E
$GPGSA,A,3,09,23,16,07,,,,,,,,,6.13,3.41,5.09*04
$GPGSV,3,1,10,03,27,179,,06,01,271,,07,46,285,29,08,16,140,09*72
$GPGSV,3,2,10,09,60,331,29,16,38,046,21,23,69,084,30,26,11,040,*70
$GPGSV,3,3,10,48,48,207,,51,50,162,*79
$GPGLL,3309.05355,N,11708.73534,W,013429.00,A,A*70
$GPRMC,013430.00,A,3309.05349,N,11708.73537,W,0.346,,241216,,,A*6C
$GPVTG,,T,,M,0.346,N,0.641,K,A*21
$GPGGA,013430.00,3309.05349,N,11708.73537,W,1,04,3.41,221.2,M,-33.2,M,,*6D
$GPGSA,A,3,09,23,16,07,,,,,,,,,6.13,3.41,5.09*04
$GPGSV,3,1,10,03,27,179,,06,01,271,,07,46,285,30,08,16,140,09*7A
$GPGSV,3,2,10,09,60,331,29,16,38,046,21,23,69,084,30,26,11,040,*70
$GPGSV,3,3,10,48,48,207,,51,50,162,*79
$GPGLL,3309.05349,N,11708.73537,W,013430.00,A,A*76
$GPRMC,013431.00,A,3309.05329,N,11708.73553,W,0.466,,241216,,,A*6C
$GPVTG,,T,,M,0.466,N,0.864,K,A*2D
$GPGGA,013431.00,3309.05329,N,11708.73553,W,1,04,3.41,221.8,M,-33.2,M,,*62
$GPGSA,A,3,09,23,16,07,,,,,,,,,6.13,3.41,5.09*04
$GPGSV,3,1,10,03,27,179,,06,01,271,,07,46,285,30,08,16,140,09*7A
$GPGSV,3,2,10,09,60,331,30,16,38,046,21,23,69,084,29,26,11,040,*70
$GPGSV,3,3,10,48,48,207,,51,50,162,*79
$GPGLL,3309.05329,N,11708.73553,W,013431.00,A,A*73
$GPRMC,013432.00,A,3309.05335,N,11708.73553,W,0.085,,241216,,,A*6B
$GPVTG,,T,,M,0.085,N,0.157,K,A*2D
$GPGGA,013432.00,3309.05335,N,11708.73553,W,1,04,3.41,221.9,M,-33.2,M,,*6D
$GPGSA,A,3,09,23,16,07,,,,,,,,,6.13,3.41,5.09*04
$GPGSV,3,1,10,03,27,179,,06,01,271,,07,46,285,30,08,16,140,09*7A
$GPGSV,3,2,10,09,60,331,31,16,38,046,29,23,69,084,30,26,11,040,*71
$GPGSV,3,3,10,48,48,207,,51,50,162,*79
$GPGLL,3309.05335,N,11708.73553,W,013432.00,A,A*7D
$GPRMC,013433.00,A,3309.05334,N,11708.73585,W,1.517,,241216,,,A*6F
$GPVTG,,T,,M,1.517,N,2.810,K,A*2A
$GPGGA,013433.00,3309.05334,N,11708.73585,W,1,04,3.41,221.4,M,-33.2,M,,*6B
$GPGSA,A,3,09,23,16,07,,,,,,,,,6.13,3.41,5.09*04
$GPGSV,3,1,10,03,27,179,,06,01,271,,07,46,285,29,08,16,140,07*7C
$GPGSV,3,2,10,09,60,331,30,16,38,046,21,23,69,084,30,26,11,040,*78
$GPGSV,3,3,10,48,48,207,,51,50,162,*79
$GPGLL,3309.05334,N,11708.73585,W,013433.00,A,A*76
$GPRMC,013434.00,A,3309.05319,N,11708.73622,W,1.955,,241216,,,A*63
$GPVTG,,T,,M,1.955,N,3.620,K,A*2C
$GPGGA,013434.00,3309.05319,N,11708.73622,W,1,04,3.41,219.9,M,-33.2,M,,*6B
$GPGSA,A,3,09,23,16,07,,,,,,,,,6.13,3.41,5.09*04
$GPGSV,3,1,10,03,27,179,,06,01,271,,07,46,285,28,08,16,140,07*7D
$GPGSV,3,2,10,09,60,331,29,16,38,046,28,23,69,084,29,26,11,040,*71
$GPGSV,3,3,10,48,48,207,,51,50,162,*79
$GPGLL,3309.05319,N,11708.73622,W,013434.00,A,A*70
$GPRMC,013435.00,A,3309.05283,N,11708.73644,W,0.943,,241216,,,A*66
$GPVTG,,T,,M,0.943,N,1.747,K,A*28
$GPGGA,013435.00,3309.05283,N,11708.73644,W,1,04,3.41,218.6,M,-33.2,M,,*66
$GPGSA,A,3,09,23,16,07,,,,,,,,,6.13,3.41,5.09*04
$GPGSV,3,1,10,03,27,179,23,06,01,271,,07,46,285,29,08,16,140,07*7D
$GPGSV,3,2,10,09,60,331,34,16,38,046,27,23,69,084,33,26,11,040,17*7F
$GPGSV,3,3,10,48,48,207,,51,50,162,*79
$GPGLL,3309.05283,N,11708.73644,W,013435.00,A,A*73
$GPRMC,013436.00,A,3309.05249,N,11708.73676,W,1.632,,241216,,,A*6A
$GPVTG,,T,,M,1.632,N,3.022,K,A*26
$GPGGA,013436.00,3309.05249,N,11708.73676,W,1,04,3.41,218.3,M,-33.2,M,,*67
$GPGSA,A,3,09,23,16,07,,,,,,,,,6.13,3.41,5.09*04
$GPGSV,3,1,10,03,27,179,20,06,01,271,,07,46,285,28,08,16,140,07*7F
$GPGSV,3,2,10,09,60,331,34,16,38,046,27,23,69,084,33,26,11,040,15*7D
$GPGSV,3,3,10,48,48,207,,51,50,162,*79
$GPGLL,3309.05249,N,11708.73676,W,013436.00,A,A*77
$GPRMC,013437.00,A,3309.05208,N,11708.73714,W,2.633,193.49,241216,,,A*71
$GPVTG,193.49,T,,M,2.633,N,4.876,K,A*32
$GPGGA,013437.00,3309.05208,N,11708.73714,W,1,04,3.41,218.4,M,-33.2,M,,*61
$GPGSA,A,3,09,23,16,07,,,,,,,,,6.13,3.41,5.09*04
$GPGSV,3,1,10,03,27,179,18,06,01,271,,07,46,285,29,08,16,140,07*75
$GPGSV,3,2,10,09,60,331,37,16,38,046,27,23,69,084,32,26,11,040,14*7E
$GPGSV,3,3,10,48,48,207,,51,50,162,*79
$GPGLL,3309.05208,N,11708.73714,W,013437.00,A,A*76
$GPRMC,013438.00,A,3309.05192,N,11708.73717,W,1.818,198.09,241216,,,A*76
$GPVTG,198.09,T,,M,1.818,N,3.367,K,A*35
$GPGGA,013438.00,3309.05192,N,11708.73717,W,1,04,3.41,215.9,M,-33.2,M,,*6D
$GPGSA,A,3,09,23,16,07,,,,,,,,,6.13,3.41,5.09*04
$GPGSV,3,1,10,03,27,179,17,06,01,271,,07,46,285,27,08,16,140,07*74
$GPGSV,3,2,10,09,60,331,34,16,38,046,27,23,69,084,33,26,11,040,18*70
$GPGSV,3,3,10,48,48,207,,51,50,162,*79
$GPGLL,3309.05192,N,11708.73717,W,013438.00,A,A*7A
$GPRMC,013439.00,A,3309.05167,N,11708.73743,W,0.516,,241216,,,A*69
$GPVTG,,T,,M,0.516,N,0.956,K,A*2B
$GPGGA,013439.00,3309.05167,N,11708.73743,W,1,05,3.33,216.4,M,-33.2,M,,*6D
$GPGSA,A,3,09,26,23,16,07,,,,,,,,4.52,3.33,3.06*0B
$GPGSV,3,1,10,03,27,179,14,06,01,271,,07,46,285,24,08,16,140,08*7B
$GPGSV,3,2,10,09,60,331,30,16,38,046,25,23,69,084,31,26,11,040,18*74
$GPGSV,3,3,10,48,48,207,,51,50,162,*79
$GPGLL,3309.05167,N,11708.73743,W,013439.00,A,A*70
$GPRMC,013440.00,A,3309.05177,N,11708.73750,W,0.509,,241216,,,A*6A
$GPVTG,,T,,M,0.509,N,0.943,K,A*21
$GPGGA,013440.00,3309.05177,N,11708.73750,W,1,05,3.33,215.3,M,-33.2,M,,*64
$GPGSA,A,3,09,26,23,16,07,,,,,,,,4.52,3.33,3.06*0B
$GPGSV,3,1,10,03,27,179,11,06,01,271,,07,46,285,21,08,16,140,08*7B
$GPGSV,3,2,10,09,60,331,20,16,38,046,26,23,69,084,24,26,11,040,18*72
$GPGSV,3,3,10,48,48,207,,51,50,162,*79
$GPGLL,3309.05177,N,11708.73750,W,013440.00,A,A*7D
$GPRMC,013441.00,A,3309.05189,N,11708.73768,W,0.667,,241216,,,A*6A
$GPVTG,,T,,M,0.667,N,1.235,K,A*21
$GPGGA,013441.00,3309.05189,N,11708.73768,W,1,04,5.80,214.6,M,-33.2,M,,*64
$GPGSA,A,3,09,26,23,16,,,,,,,,,8.25,5.80,5.86*00
$GPGSV,3,1,10,03,27,179,09,06,01,271,,07,46,285,15,08,16,140,08*75
$GPGSV,3,2,10,09,60,331,17,16,38,046,28,23,69,084,20,26,11,040,17*73
$GPGSV,3,3,10,48,48,207,,51,50,162,*79
$GPGLL,3309.05189,N,11708.73768,W,013441.00,A,A*76
$GPRMC,013442.00,A,3309.05162,N,11708.73725,W,1.216,,241216,,,A*66
$GPVTG,,T,,M,1.216,N,2.253,K,A*21
$GPGGA,013442.00,3309.05162,N,11708.73725,W,1,05,3.33,214.0,M,-33.2,M,,*62
$GPGSA,A,3,09,26,23,16,07,,,,,,,,4.52,3.33,3.06*0B
$GPGSV,3,1,10,03,27,179,08,06,01,271,,07,46,285,11,08,16,140,07*7F
$GPGSV,3,2,10,09,60,331,13,16,38,046,25,23,69,084,15,26,11,040,18*73
$GPGSV,3,3,10,48,48,207,,51,50,162,*79
$GPGLL,3309.05162,N,11708.73725,W,013442.00,A,A*79
$GPRMC,013443.00,A,3309.05248,N,11708.73698,W,2.442,,241216,,,A*6F
$GPVTG,,T,,M,2.442,N,4.523,K,A*23
$GPGGA,013443.00,3309.05248,N,11708.73698,W,1,05,3.33,213.2,M,-33.2,M,,*6A
$GPGSA,A,3,09,26,23,16,07,,,,,,,,4.52,3.33,3.06*0B
$GPGSV,3,1,10,03,27,179,08,06,01,271,,07,46,285,10,08,16,140,07*7E
$GPGSV,3,2,10,09,60,331,11,16,38,046,21,23,69,084,10,26,11,040,16*7E
$GPGSV,3,3,10,48,48,207,,51,50,162,*79
$GPGLL,3309.05248,N,11708.73698,W,013443.00,A,A*74
$GPRMC,013444.00,A,3309.05382,N,11708.73596,W,3.731,,241216,,,A*64
$GPVTG,,T,,M,3.731,N,6.911,K,A*2A
$GPGGA,013444.00,3309.05382,N,11708.73596,W,1,03,9.02,216.9,M,-33.2,M,,*67
$GPGSA,A,2,26,16,07,,,,,,,,,,9.08,9.02,1.00*0C
$GPGSV,3,1,10,03,27,179,08,06,01,271,,07,46,285,10,08,16,140,08*71
$GPGSV,3,2,10,09,60,331,08,16,38,046,16,23,69,084,09,26,11,040,14*78
$GPGSV,3,3,10,48,48,207,,51,50,162,*79
$GPGLL,3309.05382,N,11708.73596,W,013444.00,A,A*79
$GPRMC,013445.00,V,,,,,,,241216,,,N*78