ends at GLL line

Goodnight moon!
$GPRMC,012417.00,A,3309.05662,N,11708.73317,W,0.023,,030117,,,A*66
$GPVTG,,T,,M,0.023,N,0.042,K,A*24
$GPGGA,012417.00,3309.05662,N,11708.73317,W,1,08,1.00,214.3,M,-33.2,M,,*6D
$GPGSA,A,3,09,23,07,08,27,16,30,03,,,,,1.90,1.00,1.61*08
$GPGSV,4,1,14,03,13,176,35,07,53,304,23,08,27,129,39,09,74,342,34*7C
$GPGSV,4,2,14,16,25,041,32,22,02,167,15,23,59,114,45,26,00,041,15*75
$GPGSV,4,3,14,27,27,085,36,28,09,213,27,30,25,274,38,46,48,147,*77
$GPGSV,4,4,14,48,48,207,,51,50,162,39*77
$GPGLL,3309.05662,N,11708.73317,W,012417.00,A,A*7A
$GPRMC,012418.00,A,3309.05669,N,11708.73318,W,0.022,,030117,,,A*6C
$GPVTG,,T,,M,0.022,N,0.041,K,A*26
$GPGGA,012418.00,3309.05669,N,11708.73318,W,1,08,1.00,214.6,M,-33.2,M,,*63
$GPGSA,A,3,09,23,07,08,27,16,30,03,,,,,1.90,1.00,1.61*08
$GPGSV,4,1,14,03,13,176,35,07,53,304,23,08,27,129,38,09,74,342,34*7D
$GPGSV,4,2,14,16,25,041,32,22,02,167,15,23,59,114,45,26,00,041,*71
$GPGSV,4,3,14,27,27,085,36,28,09,213,28,30,25,274,38,46,48,147,*78
$GPGSV,4,4,14,48,48,207,,51,50,162,39*77
$GPGLL,3309.05669,N,11708.73318,W,012418.00,A,A*71
$GPRMC,012419.00,A,3309.05676,N,11708.73319,W,0.013,,030117,,,A*60
$GPVTG,,T,,M,0.013,N,0.025,K,A*26
$GPGGA,012419.00,3309.05676,N,11708.73319,W,1,08,1.00,214.7,M,-33.2,M,,*6C
$GPGSA,A,3,09,23,07,08,27,16,30,03,,,,,1.90,1.00,1.61*08
$GPGSV,4,1,14,03,13,176,35,07,53,304,23,08,27,129,38,09,74,342,34*7D
$GPGSV,4,2,14,16,25,041,32,22,02,167,14,23,59,114,45,26,00,041,*70
$GPGSV,4,3,14,27,27,084,36,28,09,213,28,30,25,274,38,46,48,147,*79
$GPGSV,4,4,14,48,48,207,,51,50,162,39*77
$GPGLL,3309.05676,N,11708.73319,W,012419.00,A,A*7F
$GPRMC,012420.00,A,3309.05680,N,11708.73320,W,0.026,,030117,,,A*6F
$GPVTG,,T,,M,0.026,N,0.048,K,A*2B
$GPGGA,012420.00,3309.05680,N,11708.73320,W,1,08,1.00,214.7,M,-33.2,M,,*65
$GPGSA,A,3,09,23,07,08,27,16,30,03,,,,,1.90,1.00,1.61*08
$GPGSV,4,1,14,03,13,176,35,07,53,304,25,08,27,129,38,09,74,342,34*7B
$GPGSV,4,2,14,16,25,041,32,22,02,167,14,23,59,114,44,26,00,041,*71
$GPGSV,4,3,14,27,27,084,36,28,09,213,27,30,25,274,38,46,48,147,*76
$GPGSV,4,4,14,48,48,207,,51,50,162,39*77
$GPGLL,3309.05680,N,11708.73320,W,012420.00,A,A*76
$GPRMC,012421.00,A,3309.05682,N,11708.73322,W,0.017,,030117,,,A*6C
$GPVTG,,T,,M,0.017,N,0.031,K,A*27
$GPGGA,012421.00,3309.05682,N,11708.73322,W,1,08,1.00,214.8,M,-33.2,M,,*6B
$GPGSA,A,3,09,23,07,08,27,16,30,03,,,,,1.89,1.00,1.61*00
$GPGSV,4,1,14,03,13,176,35,07,53,304,26,08,27,129,38,09,74,342,34*78
$GPGSV,4,2,14,16,25,041,32,22,02,167,14,23,59,114,44,26,00,041,*71
$GPGSV,4,3,14,27,27,084,36,28,09,213,27,30,25,274,38,46,48,147,*76
$GPGSV,4,4,14,48,48,207,,51,50,162,39*77
$GPGLL,3309.05682,N,11708.73322,W,012421.00,A,A*77
$GPRMC,012422.00,A,3309.05685,N,11708.73323,W,0.032,,030117,,,A*6E
$GPVTG,,T,,M,0.032,N,0.060,K,A*24
$GPGGA,012422.00,3309.05685,N,11708.73323,W,1,08,1.00,214.6,M,-33.2,M,,*60
$GPGSA,A,3,09,23,07,08,27,16,30,03,,,,,1.89,1.00,1.61*00
$GPGSV,4,1,14,03,13,176,35,07,53,304,27,08,27,129,38,09,74,342,34*79
$GPGSV,4,2,14,16,25,041,32,22,02,167,15,23,59,114,45,26,00,041,*71
$GPGSV,4,3,14,27,27,084,36,28,09,213,27,30,25,274,38,46,48,147,*76
$GPGSV,4,4,14,48,48,207,,51,50,162,39*77
$GPGLL,3309.05685,N,11708.73323,W,012422.00,A,A*72
$GPRMC,012423.00,A,3309.05687,N,11708.73321,W,0.043,,030117,,,A*69
$GPVTG,,T,,M,0.043,N,0.080,K,A*2C
$GPGGA,012423.00,3309.05687,N,11708.73321,W,1,08,1.00,214.6,M,-33.2,M,,*61
$GPGSA,A,3,09,23,07,08,27,16,30,03,,,,,1.89,1.00,1.61*00
$GPGSV,4,1,14,03,13,176,32,07,53,304,26,08,27,129,39,09,74,342,36*7C
$GPGSV,4,2,14,16,25,041,31,22,02,167,16,23,59,114,43,26,00,041,*77
$GPGSV,4,3,14,27,27,084,33,28,09,213,27,30,25,274,34,46,48,147,32*7E
$GPGSV,4,4,14,48,48,207,,51,50,162,42*7B
$GPGLL,3309.05687,N,11708.73321,W,012423.00,A,A*73
$GPRMC,012424.00,A,3309.05697,N,11708.73318,W,0.035,,030117,,,A*64
$GPVTG,,T,,M,0.035,N,0.065,K,A*26
$GPGGA,012424.00,3309.05697,N,11708.73318,W,1,08,1.00,214.6,M,-33.2,M,,*6D
$GPGSA,A,3,09,23,07,08,27,16,30,03,,,,,1.89,1.00,1.61*00
$GPGSV,4,1,14,03,13,176,29,07,53,304,26,08,27,129,37,09,74,342,33*7D
$GPGSV,4,2,14,16,25,041,35,22,02,167,15,23,59,114,42,26,00,041,*71
$GPGSV,4,3,14,27,27,084,32,28,09,213,26,30,25,274,37,46,48,147,31*7E
$GPGSV,4,4,14,48,48,207,,51,50,162,39*77
$GPGLL,3309.05697,N,11708.73318,W,012424.00,A,A*7F
$GPRMC,012425.00,A,3309.05686,N,11708.73311,W,0.002,,030117,,,A*68
$GPVTG,,T,,M,0.002,N,0.003,K,A*22
$GPGGA,012425.00,3309.05686,N,11708.73311,W,1,08,1.00,214.4,M,-33.2,M,,*67
$GPGSA,A,3,09,23,07,08,27,16,30,03,,,,,1.89,1.00,1.61*00
$GPGSV,4,1,14,03,13,176,28,07,53,304,26,08,27,129,37,09,74,342,40*78
$GPGSV,4,2,14,16,25,041,31,22,02,167,16,23,59,114,41,26,00,041,*75
$GPGSV,4,3,14,27,27,084,36,28,09,213,32,30,25,274,37,46,48,147,30*7E
$GPGSV,4,4,14,48,48,207,,51,50,162,35*7B
$GPGLL,3309.05686,N,11708.73311,W,012425.00,A,A*77
$GPRMC,012426.00,A,3309.05695,N,11708.73292,W,0.938,,030117,,,A*63
$GPVTG,,T,,M,0.938,N,1.738,K,A*2C
$GPGGA,012426.00,3309.05695,N,11708.73292,W,1,08,1.00,214.2,M,-33.2,M,,*6A
$GPGSA,A,3,09,23,07,08,27,16,30,03,,,,,1.89,1.00,1.61*00
$GPGSV,4,1,14,03,13,176,28,07,53,304,35,08,27,129,31,09,74,342,37*7C
$GPGSV,4,2,14,16,25,041,27,22,02,167,18,23,59,114,34,26,00,041,*7E
$GPGSV,4,3,14,27,27,084,28,28,09,213,26,30,25,274,27,46,48,147,30*75
$GPGSV,4,4,14,48,48,207,,51,50,162,31*7F
$GPGLL,3309.05695,N,11708.73292,W,012426.00,A,A*7C
$GPRMC,012427.00,A,3309.05704,N,11708.73280,W,0.333,,030117,,,A*69
$GPVTG,,T,,M,0.333,N,0.617,K,A*20
$GPGGA,012427.00,3309.05704,N,11708.73280,W,1,08,1.00,214.2,M,-33.2,M,,*61
$GPGSA,A,3,09,23,07,08,27,16,30,03,,,,,1.89,1.00,1.61*00
$GPGSV,4,1,14,03,13,176,18,07,53,304,24,08,27,129,26,09,74,342,29*76
$GPGSV,4,2,14,16,25,041,26,22,02,167,17,23,59,114,28,26,00,041,*7D
$GPGSV,4,3,14,27,27,084,15,28,09,213,22,30,25,274,24,46,48,147,28*75
$GPGSV,4,4,14,48,48,207,,51,50,162,30*7E
$GPGLL,3309.05704,N,11708.73280,W,012427.00,A,A*77
$GPRMC,012428.00,A,3309.05695,N,11708.73264,W,0.558,,030117,,,A*6E
$GPVTG,,T,,M,0.558,N,1.034,K,A*2D
$GPGGA,012428.00,3309.05695,N,11708.73264,W,1,08,1.00,214.3,M,-33.2,M,,*6C
$GPGSA,A,3,09,23,07,08,27,16,30,03,,,,,1.89,1.00,1.61*00
$GPGSV,4,1,14,03,13,176,15,07,53,304,21,08,27,129,25,09,74,342,29*7D
$GPGSV,4,2,14,16,25,041,25,22,02,167,15,23,59,114,27,26,00,041,*73
$GPGSV,4,3,14,27,27,084,11,28,09,213,19,30,25,274,22,46,48,147,*75
$GPGSV,4,4,14,48,48,207,,51,50,162,*7D
$GPGLL,3309.05695,N,11708.73264,W,012428.00,A,A*7B
$GPRMC,012429.00,A,3309.05691,N,11708.73246,W,0.713,,030117,,,A*66
$GPVTG,,T,,M,0.713,N,1.321,K,A*27
$GPGGA,012429.00,3309.05691,N,11708.73246,W,1,08,1.00,214.2,M,-33.2,M,,*68
$GPGSA,A,3,09,23,07,08,27,16,30,03,,,,,1.89,1.00,1.61*00
$GPGSV,4,1,14,03,13,176,14,07,53,304,15,08,27,129,22,09,74,342,27*72
$GPGSV,4,2,14,16,25,041,23,22,02,167,10,23,59,114,25,26,00,041,*72
$GPGSV,4,3,14,27,27,084,11,28,09,213,12,30,25,274,16,46,48,147,*79
$GPGSV,4,4,14,48,48,207,,51,50,162,*7D
$GPGLL,3309.05691,N,11708.73246,W,012429.00,A,A*7E
$GPRMC,012430.00,A,3309.05698,N,11708.73292,W,1.432,,030117,,,A*6F
$GPVTG,,T,,M,1.432,N,2.652,K,A*24
$GPGGA,012430.00,3309.05698,N,11708.73292,W,1,07,1.23,213.9,M,-33.2,M,,*62
$GPGSA,A,3,09,23,07,08,27,16,30,,,,,,2.15,1.23,1.76*02
$GPGSV,4,1,14,03,13,176,09,07,53,304,13,08,27,129,21,09,74,342,24*78
$GPGSV,4,2,14,16,25,041,20,22,02,167,09,23,59,114,25,26,00,041,*79
$GPGSV,4,3,14,27,27,084,11,28,09,213,10,30,25,274,11,46,48,147,*7C
$GPGSV,4,4,14,48,48,207,,51,50,162,*7D
$GPGLL,3309.05698,N,11708.73292,W,012430.00,A,A*76
$GPRMC,012431.00,A,3309.05720,N,11708.73347,W,2.058,,030117,,,A*6E
$GPVTG,,T,,M,2.058,N,3.811,K,A*27
$GPGGA,012431.00,3309.05720,N,11708.73347,W,1,06,1.81,213.5,M,-33.2,M,,*6D
$GPGSA,A,3,09,23,07,08,27,16,,,,,,,3.40,1.81,2.87*05
$GPGSV,4,1,14,03,13,176,08,07,53,304,13,08,27,129,19,09,74,342,22*74
$GPGSV,4,2,14,16,25,041,16,22,02,167,,23,59,114,25,26,00,041,*75
$GPGSV,4,3,14,27,27,084,11,28,09,213,08,30,25,274,,46,48,147,*75
$GPGSV,4,4,14,48,48,207,,51,50,162,*7D
$GPGLL,3309.05720,N,11708.73347,W,012431.00,A,A*7C
$GPRMC,012432.00,A,3309.05715,N,11708.73395,W,2.228,,030117,,,A*61
$GPVTG,,T,,M,2.228,N,4.126,K,A*28
$GPGGA,012432.00,3309.05715,N,11708.73395,W,1,07,1.24,212.1,M,-33.2,M,,*6C
$GPGSA,A,3,09,23,07,08,27,16,03,,,,,,2.25,1.24,1.88*07
$GPGSV,4,1,14,03,13,176,08,07,53,304,08,08,27,129,19,09,74,342,23*7F
$GPGSV,4,2,14,16,25,041,16,22,02,167,,23,59,114,26,26,00,041,*76
$GPGSV,4,3,14,27,27,084,13,28,09,213,10,30,25,274,,46,48,147,*7E
$GPGSV,4,4,14,48,48,207,,51,50,162,*7D
$GPGLL,3309.05715,N,11708.73395,W,012432.00,A,A*76
$GPRMC,012433.00,A,3309.05694,N,11708.73437,W,2.437,,030117,,,A*6F
$GPVTG,,T,,M,2.437,N,4.514,K,A*25
$GPGGA,012433.00,3309.05694,N,11708.73437,W,1,07,1.24,210.1,M,-33.2,M,,*68
$GPGSA,A,3,09,23,07,08,27,16,03,,,,,,2.25,1.24,1.88*07
$GPGSV,4,1,14,03,13,176,08,07,53,304,08,08,27,129,19,09,74,342,25*79
$GPGSV,4,2,14,16,25,041,17,22,02,167,,23,59,114,27,26,00,041,*76
$GPGSV,4,3,14,27,27,084,13,28,09,213,10,30,25,274,,46,48,147,*7E
$GPGSV,4,4,14,48,48,207,,51,50,162,*7D
$GPGLL,3309.05694,N,11708.73437,W,012433.00,A,A*70
$GPRMC,012434.00,A,3309.05718,N,11708.73444,W,1.424,,030117,,,A*68
$GPVTG,,T,,M,1.424,N,2.638,K,A*2F
$GPGGA,012434.00,3309.05718,N,11708.73444,W,1,06,1.62,208.0,M,-33.2,M,,*65
$GPGSA,A,3,09,23,08,27,16,03,,,,,,,2.51,1.62,1.92*0A
$GPGSV,4,1,14,03,13,176,08,07,53,304,08,08,27,129,17,09,74,342,25*77
$GPGSV,4,2,14,16,25,041,15,22,02,167,,23,59,114,26,26,00,041,*75
$GPGSV,4,3,14,27,27,084,13,28,09,213,10,30,25,274,,46,48,147,*7E
$GPGSV,4,4,14,48,48,207,,51,50,162,*7D
$GPGLL,3309.05718,N,11708.73444,W,012434.00,A,A*76
$GPRMC,012435.00,A,3309.05761,N,11708.73333,W,0.645,,030117,,,A*64
$GPVTG,,T,,M,0.645,N,1.195,K,A*28
$GPGGA,012435.00,3309.05761,N,11708.73333,W,1,06,1.62,205.4,M,-33.2,M,,*64
$GPGSA,A,3,09,23,08,27,16,03,,,,,,,2.51,1.62,1.92*0A
$GPGSV,4,1,14,03,13,176,08,07,53,304,08,08,27,129,27,09,74,342,28*79
$GPGSV,4,2,14,16,25,041,15,22,02,167,,23,59,114,31,26,00,041,*73
$GPGSV,4,3,14,27,27,084,13,28,09,213,10,30,25,274,17,46,48,147,*78
$GPGSV,4,4,14,48,48,207,,51,50,162,*7D
$GPGLL,3309.05761,N,11708.73333,W,012435.00,A,A*7E
$GPRMC,012436.00,A,3309.05779,N,11708.73311,W,1.416,,030117,,,A*6B
$GPVTG,,T,,M,1.416,N,2.622,K,A*25
$GPGGA,012436.00,3309.05779,N,11708.73311,W,1,05,3.26,206.1,M,-33.2,M,,*69
$GPGSA,A,3,09,23,08,27,16,,,,,,,,5.29,3.26,4.17*0B
$GPGSV,4,1,14,03,13,176,,07,53,304,08,08,27,129,29,09,74,342,31*77
$GPGSV,4,2,14,16,25,041,20,22,02,167,,23,59,114,31,26,00,041,*75
$GPGSV,4,3,14,27,27,084,29,28,09,213,10,30,25,274,16,46,48,147,*70
$GPGSV,4,4,14,48,48,207,,51,50,162,*7D
$GPGLL,3309.05779,N,11708.73311,W,012436.00,A,A*74
$GPRMC,012437.00,A,3309.05781,N,11708.73322,W,0.318,,030117,,,A*65
$GPVTG,,T,,M,0.318,N,0.588,K,A*2C
$GPGGA,012437.00,3309.05781,N,11708.73322,W,1,05,3.26,205.1,M,-33.2,M,,*6C
$GPGSA,A,3,09,23,08,27,16,,,,,,,,5.30,3.26,4.17*03
$GPGSV,4,1,14,03,13,176,,07,53,304,08,08,27,129,12,09,74,342,23*7C
$GPGSV,4,2,14,16,25,041,19,22,02,167,,23,59,114,30,26,00,041,*7E
$GPGSV,4,3,14,27,27,084,19,28,09,213,10,30,25,274,13,46,48,147,*76
$GPGSV,4,4,14,48,48,207,,51,50,162,*7D
$GPGLL,3309.05781,N,11708.73322,W,012437.00,A,A*72
$GPRMC,012438.00,A,3309.05781,N,11708.73324,W,0.196,,030117,,,A*68
$GPVTG,,T,,M,0.196,N,0.363,K,A*2B
$GPGGA,012438.00,3309.05781,N,11708.73324,W,1,05,3.26,204.0,M,-33.2,M,,*65
$GPGSA,A,3,09,23,08,27,16,,,,,,,,5.30,3.26,4.17*03
$GPGSV,4,1,14,03,13,176,18,07,53,304,09,08,27,129,17,09,74,342,21*73
$GPGSV,4,2,14,16,25,041,18,22,02,167,,23,59,114,24,26,00,041,*7A
$GPGSV,4,3,14,27,27,084,20,28,09,213,08,30,25,274,14,46,48,147,*72
$GPGSV,4,4,14,48,48,207,,51,50,162,*7D
$GPGLL,3309.05781,N,11708.73324,W,012438.00,A,A*7B
$GPRMC,012439.00,A,3309.05845,N,11708.73298,W,0.903,,030117,,,A*6C
$GPVTG,,T,,M,0.903,N,1.672,K,A*2B
$GPGGA,012439.00,3309.05845,N,11708.73298,W,1,08,1.00,204.1,M,-33.2,M,,*6F
$GPGSA,A,3,09,23,07,08,27,16,30,03,,,,,1.89,1.00,1.61*00
$GPGSV,4,1,14,03,13,176,28,07,53,304,21,08,27,129,22,09,74,342,25*78
$GPGSV,4,2,14,16,25,041,19,22,02,167,,23,59,114,36,26,00,041,*78
$GPGSV,4,3,14,27,27,084,23,28,09,213,,30,25,274,15,46,48,147,*78
$GPGSV,4,4,14,48,48,207,,51,50,162,*7D
$GPGLL,3309.05845,N,11708.73298,W,012439.00,A,A*7B
$GPRMC,012440.00,A,3309.05818,N,11708.73370,W,1.747,,030117,,,A*62
$GPVTG,,T,,M,1.747,N,3.236,K,A*22
$GPGGA,012440.00,3309.05818,N,11708.73370,W,1,08,1.00,204.0,M,-33.2,M,,*6F
$GPGSA,A,3,09,23,07,08,27,16,30,03,,,,,1.89,1.00,1.61*00
$GPGSV,4,1,14,03,13,176,25,07,53,304,25,08,27,129,23,09,74,342,32*76
$GPGSV,4,2,14,16,25,041,19,22,02,167,13,23,59,114,36,26,00,041,25*7D
$GPGSV,4,3,14,27,27,084,30,28,09,213,19,30,25,274,19,46,48,147,*7E
$GPGSV,4,4,14,48,48,207,,51,50,162,*7D
$GPGLL,3309.05818,N,11708.73370,W,012440.00,A,A*7A
$GPRMC,012441.00,A,3309.05826,N,11708.73398,W,0.479,,030117,,,A*67
$GPVTG,,T,,M,0.479,N,0.888,K,A*21
$GPGGA,012441.00,3309.05826,N,11708.73398,W,1,07,1.42,205.0,M,-33.2,M,,*6D
$GPGSA,A,3,09,23,07,08,27,30,03,,,,,,2.49,1.42,2.04*0E
$GPGSV,4,1,14,03,13,176,23,07,53,304,32,08,27,129,25,09,74,342,32*70
$GPGSV,4,2,14,16,25,041,,22,02,167,13,23,59,114,38,26,00,041,21*7F
$GPGSV,4,3,14,27,27,084,29,28,09,213,,30,25,274,21,46,48,147,*75
$GPGSV,4,4,14,48,48,207,,51,50,162,*7D
$GPGLL,3309.05826,N,11708.73398,W,012441.00,A,A*70
$GPRMC,012442.00,A,3309.05804,N,11708.73355,W,0.350,,030117,,,A*69
$GPVTG,,T,,M,0.350,N,0.647,K,A*20
$GPGGA,012442.00,3309.05804,N,11708.73355,W,1,07,1.42,205.8,M,-33.2,M,,*67
$GPGSA,A,3,09,23,07,08,27,30,03,,,,,,2.49,1.42,2.04*0E
$GPGSV,4,1,14,03,13,176,19,07,53,305,33,08,27,129,27,09,74,342,33*7A
$GPGSV,4,2,14,16,25,041,21,22,02,167,,23,59,114,38,26,00,041,19*75
$GPGSV,4,3,14,27,27,084,29,28,09,213,26,30,25,274,24,46,48,147,*74
$GPGSV,4,4,14,48,48,207,,51,50,162,*7D
$GPGLL,3309.05804,N,11708.73355,W,012442.00,A,A*72
$GPRMC,012443.00,A,3309.05776,N,11708.73305,W,0.047,,030117,,,A*62
$GPVTG,,T,,M,0.047,N,0.088,K,A*20
$GPGGA,012443.00,3309.05776,N,11708.73305,W,1,06,1.93,207.1,M,-33.2,M,,*6F
$GPGSA,A,3,09,23,07,08,27,30,,,,,,,2.82,1.93,2.05*07
$GPGSV,4,1,14,03,13,176,,07,53,305,35,08,27,129,29,09,74,342,34*7D
$GPGSV,4,2,14,16,25,041,23,22,02,167,,23,59,114,40,26,00,041,20*72
$GPGSV,4,3,14,27,27,084,30,28,09,213,26,30,25,274,27,46,48,147,*7F
$GPGSV,4,4,14,48,48,207,,51,50,162,*7D
$GPGLL,3309.05776,N,11708.73305,W,012443.00,A,A*7C
$GPRMC,012444.00,A,3309.05755,N,11708.73271,W,0.485,,030117,,,A*6C
$GPVTG,,T,,M,0.485,N,0.897,K,A*2C
$GPGGA,012444.00,3309.05755,N,11708.73271,W,1,07,1.23,207.7,M,-33.2,M,,*67
$GPGSA,A,3,09,23,07,08,27,16,30,,,,,,2.15,1.23,1.76*02
$GPGSV,4,1,14,03,13,176,,07,53,305,35,08,27,129,29,09,74,343,36*7E
$GPGSV,4,2,14,16,25,041,22,22,02,167,21,23,59,114,37,26,00,041,*72
$GPGSV,4,3,14,27,27,084,30,28,09,213,17,30,25,274,29,46,48,147,29*78
$GPGSV,4,4,14,48,48,207,29,51,50,162,*76
$GPGLL,3309.05755,N,11708.73271,W,012444.00,A,A*78
$GPRMC,012445.00,A,3309.05823,N,11708.73264,W,0.503,,030117,,,A*68
$GPVTG,,T,,M,0.503,N,0.931,K,A*2E
$GPGGA,012445.00,3309.05823,N,11708.73264,W,1,07,1.23,208.8,M,-33.2,M,,*6C
$GPGSA,A,3,09,23,07,08,27,16,30,,,,,,2.15,1.23,1.76*02
$GPGSV,4,1,14,03,13,176,24,07,53,305,38,08,27,129,16,09,74,343,41*79
$GPGSV,4,2,14,16,25,041,23,22,02,167,24,23,59,114,39,26,00,041,22*78
$GPGSV,4,3,14,27,27,084,30,28,09,213,28,30,25,274,33,46,48,147,29*7F
$GPGSV,4,4,14,48,48,207,28,51,50,162,38*7C
$GPGLL,3309.05823,N,11708.73264,W,012445.00,A,A*73
$GPRMC,012446.00,A,3309.05839,N,11708.73279,W,0.153,,030117,,,A*6D
$GPVTG,,T,,M,0.153,N,0.284,K,A*2A
$GPGGA,012446.00,3309.05839,N,11708.73279,W,1,07,1.23,208.8,M,-33.2,M,,*68
$GPGSA,A,3,09,23,07,08,27,16,30,,,,,,2.15,1.23,1.76*02
$GPGSV,4,1,14,03,13,176,20,07,53,305,36,08,27,129,30,09,74,343,34*75
$GPGSV,4,2,14,16,25,041,24,22,02,167,22,23,59,114,41,26,00,041,26*72
$GPGSV,4,3,14,27,27,084,29,28,09,213,24,30,25,274,25,46,48,147,27*72
$GPGSV,4,4,14,48,48,207,26,51,50,162,36*7C
$GPGLL,3309.05839,N,11708.73279,W,012446.00,A,A*77
$GPRMC,012447.00,A,3309.05854,N,11708.73285,W,0.057,,030117,,,A*61
$GPVTG,,T,,M,0.057,N,0.105,K,A*25
$GPGGA,012447.00,3309.05854,N,11708.73285,W,1,07,1.23,208.9,M,-33.2,M,,*60
$GPGSA,A,3,09,23,07,08,27,16,30,,,,,,2.15,1.23,1.76*02
$GPGSV,4,1,14,03,13,176,19,07,53,305,32,08,27,129,28,09,74,343,34*72
$GPGSV,4,2,14,16,25,041,26,22,02,167,18,23,59,114,40,26,00,041,22*7C
$GPGSV,4,3,14,27,27,084,28,28,09,213,23,30,25,274,24,46,48,147,27*75
$GPGSV,4,4,14,48,48,207,,51,50,162,36*78
$GPGLL,3309.05854,N,11708.73285,W,012447.00,A,A*7E
$GPRMC,012448.00,A,3309.05833,N,11708.73303,W,0.292,,030117,,,A*6B
$GPVTG,,T,,M,0.292,N,0.541,K,A*2A
$GPGGA,012448.00,3309.05833,N,11708.73303,W,1,07,1.23,208.8,M,-33.2,M,,*60
$GPGSA,A,3,09,23,07,08,27,16,30,,,,,,2.15,1.23,1.76*02
$GPGSV,4,1,14,03,13,176,,07,53,305,34,08,27,129,26,09,74,343,36*70
$GPGSV,4,2,14,16,25,041,27,22,02,167,,23,59,114,40,26,00,041,16*73
$GPGSV,4,3,14,27,27,084,27,28,09,213,,30,25,274,23,46,48,147,27*7C
$GPGSV,4,4,14,48,48,207,,51,50,162,35*7B
$GPGLL,3309.05833,N,11708.73303,W,012448.00,A,A*7F
$GPRMC,012449.00,A,3309.05817,N,11708.73313,W,0.123,,030117,,,A*64
$GPVTG,,T,,M,0.123,N,0.227,K,A*24
$GPGGA,012449.00,3309.05817,N,11708.73313,W,1,07,1.23,209.4,M,-33.2,M,,*6B
$GPGSA,A,3,09,23,07,08,27,16,30,,,,,,2.15,1.23,1.76*02
$GPGSV,4,1,14,03,13,176,,07,53,305,33,08,27,129,25,09,74,343,34*76
$GPGSV,4,2,14,16,25,041,27,22,02,167,,23,59,114,38,26,00,041,13*79
$GPGSV,4,3,14,27,27,084,26,28,09,213,,30,25,274,25,46,48,147,27*7B
$GPGSV,4,4,14,48,48,207,,51,50,162,34*7A
$GPGLL,3309.05817,N,11708.73313,W,012449.00,A,A*79
$GPRMC,012450.00,A,3309.05805,N,11708.73303,W,0.252,,030117,,,A*6B
$GPVTG,,T,,M,0.252,N,0.467,K,A*23
$GPGGA,012450.00,3309.05805,N,11708.73303,W,1,07,1.23,209.3,M,-33.2,M,,*66
$GPGSA,A,3,09,23,07,08,27,16,30,,,,,,2.15,1.23,1.76*02
$GPGSV,4,1,14,03,13,176,,07,53,305,37,08,27,129,24,09,74,343,38*7F
$GPGSV,4,2,14,16,25,041,27,22,02,167,,23,59,114,39,26,00,041,13*78
$GPGSV,4,3,14,27,27,084,27,28,09,213,,30,25,274,32,46,48,147,27*7C
$GPGSV,4,4,14,48,48,207,,51,50,162,34*7A
$GPGLL,3309.05805,N,11708.73303,W,012450.00,A,A*73
$GPRMC,012451.00,A,3309.05784,N,11708.73319,W,0.626,,030117,,,A*60
$GPVTG,,T,,M,0.626,N,1.160,K,A*27
$GPGGA,012451.00,3309.05784,N,11708.73319,W,1,07,1.23,208.6,M,-33.2,M,,*6E
$GPGSA,A,3,09,23,07,08,27,16,30,,,,,,2.15,1.23,1.76*02
$GPGSV,4,1,14,03,13,176,20,07,53,305,33,08,27,129,23,09,74,343,40*71
$GPGSV,4,2,14,16,25,041,26,22,02,167,,23,59,114,34,26,00,041,13*74
$GPGSV,4,3,14,27,27,084,26,28,09,213,,30,25,274,32,46,48,147,27*7D
$GPGSV,4,4,14,48,48,207,,51,50,162,34*7A
$GPGLL,3309.05784,N,11708.73319,W,012451.00,A,A*7F
$GPRMC,012452.00,A,3309.05790,N,11708.73317,W,0.245,,030117,,,A*69
$GPVTG,,T,,M,0.245,N,0.453,K,A*22
$GPGGA,012452.00,3309.05790,N,11708.73317,W,1,07,1.23,208.7,M,-33.2,M,,*67
$GPGSA,A,3,09,23,07,08,27,16,30,,,,,,2.15,1.23,1.76*02
$GPGSV,4,1,14,03,13,176,18,07,53,305,28,08,27,129,21,09,74,343,36*73
$GPGSV,4,2,14,16,25,041,25,22,02,167,,23,59,114,37,26,00,041,11*76
$GPGSV,4,3,14,27,27,084,31,28,09,213,,30,25,274,30,46,48,147,*7C
$GPGSV,4,4,14,48,48,207,38,51,50,162,40*72
$GPGLL,3309.05790,N,11708.73317,W,012452.00,A,A*77
$GPRMC,012453.00,A,3309.05797,N,11708.73301,W,0.249,,030117,,,A*64
$GPVTG,,T,,M,0.249,N,0.461,K,A*2F
$GPGGA,012453.00,3309.05797,N,11708.73301,W,1,07,1.23,208.8,M,-33.2,M,,*69
$GPGSA,A,3,09,23,07,08,27,16,30,,,,,,2.15,1.23,1.76*02
$GPGSV,4,1,14,03,13,176,,07,53,305,28,08,27,129,20,09,74,343,36*7B
$GPGSV,4,2,14,16,25,041,26,22,02,167,,23,59,114,37,26,00,041,10*74
$GPGSV,4,3,14,27,27,084,30,28,09,213,,30,25,274,29,46,48,147,*75
$GPGSV,4,4,14,48,48,207,39,51,50,162,40*73
$GPGLL,3309.05797,N,11708.73301,W,012453.00,A,A*76
$GPRMC,012454.00,A,3309.05798,N,11708.73297,W,0.117,,030117,,,A*6A
$GPVTG,,T,,M,0.117,N,0.217,K,A*20
$GPGGA,012454.00,3309.05798,N,11708.73297,W,1,07,1.23,208.9,M,-33.2,M,,*6E
$GPGSA,A,3,09,23,07,08,27,16,30,,,,,,2.15,1.23,1.76*02
$GPGSV,4,1,14,03,13,176,20,07,53,305,30,08,27,129,22,09,74,343,35*71
$GPGSV,4,2,14,16,25,041,26,22,02,167,,23,59,114,36,26,00,041,10*75
$GPGSV,4,3,14,27,27,084,29,28,09,213,,30,25,274,29,46,48,147,*7D
$GPGSV,4,4,14,48,48,207,39,51,50,162,39*7D
$GPGLL,3309.05798,N,11708.73297,W,012454.00,A,A*70
$GPRMC,012455.00,A,3309.05794,N,11708.73302,W,0.275,,030117,,,A*6D
$GPVTG,,T,,M,0.275,N,0.509,K,A*2F
$GPGGA,012455.00,3309.05794,N,11708.73302,W,1,07,1.23,208.8,M,-33.2,M,,*6F
$GPGSA,A,3,09,23,07,08,27,16,30,,,,,,2.15,1.23,1.76*02
$GPGSV,4,1,14,03,13,176,18,07,53,305,29,08,27,129,26,09,74,343,34*77
$GPGSV,4,2,14,16,25,041,28,22,02,167,,23,59,114,32,26,00,041,10*7F
$GPGSV,4,3,14,27,27,084,26,28,09,213,,30,25,274,16,46,48,147,*7E
$GPGSV,4,4,14,48,48,207,37,51,50,162,40*7D
$GPGLL,3309.05794,N,11708.73302,W,012455.00,A,A*70
$GPRMC,012456.00,A,3309.05792,N,11708.73304,W,0.483,,030117,,,A*61
$GPVTG,,T,,M,0.483,N,0.894,K,A*29
$GPGGA,012456.00,3309.05792,N,11708.73304,W,1,07,1.23,208.6,M,-33.2,M,,*62
$GPGSA,A,3,09,23,07,08,27,16,30,,,,,,2.15,1.23,1.76*02
$GPGSV,4,1,14,03,13,176,16,07,53,305,28,08,27,129,27,09,74,343,29*75
$GPGSV,4,2,14,16,25,041,29,22,02,167,,23,59,114,32,26,00,041,*7F
$GPGSV,4,3,14,27,27,084,26,28,09,213,,30,25,274,18,46,48,147,*70
$GPGSV,4,4,14,48,48,207,34,51,50,162,37*7E
$GPGLL,3309.05792,N,11708.73304,W,012456.00,A,A*73
$GPRMC,012457.00,A,3309.05787,N,11708.73298,W,0.244,,030117,,,A*6D
$GPVTG,,T,,M,0.244,N,0.451,K,A*21
$GPGGA,012457.00,3309.05787,N,11708.73298,W,1,07,1.23,208.7,M,-33.2,M,,*62
$GPGSA,A,3,09,23,07,08,27,16,30,,,,,,2.15,1.23,1.76*02
$GPGSV,4,1,14,03,13,176,14,07,53,305,29,08,27,129,28,09,74,343,36*77
$GPGSV,4,2,14,16,25,041,28,22,01,167,,23,59,114,30,26,00,041,*7F
$GPGSV,4,3,14,27,27,084,26,28,09,213,,30,25,274,20,46,48,147,*7B
$GPGSV,4,4,14,48,48,207,34,51,50,162,38*71
$GPGLL,3309.05787,N,11708.73298,W,012457.00,A,A*72
$GPRMC,012458.00,A,3309.05752,N,11708.73292,W,0.373,,030117,,,A*65
$GPVTG,,T,,M,0.373,N,0.690,K,A*2B
$GPGGA,012458.00,3309.05752,N,11708.73292,W,1,07,1.30,208.3,M,-33.2,M,,*69
$GPGSA,A,3,09,07,08,27,16,30,03,,,,,,2.44,1.30,2.07*03
$GPGSV,4,1,14,03,13,176,13,07,53,305,36,08,27,129,28,09,74,343,40*7F
$GPGSV,4,2,14,16,25,041,27,22,01,167,,23,59,114,,26,00,041,*73
$GPGSV,4,3,14,27,27,084,26,28,09,213,,30,25,274,24,46,48,147,*7F
$GPGSV,4,4,14,48,48,207,39,51,50,162,37*73
$GPGLL,3309.05752,N,11708.73292,W,012458.00,A,A*7F
$GPRMC,012459.00,A,3309.05773,N,11708.73250,W,0.173,,030117,,,A*6B
$GPVTG,,T,,M,0.173,N,0.320,K,A*27
$GPGGA,012459.00,3309.05773,N,11708.73250,W,1,07,1.23,209.5,M,-33.2,M,,*60
$GPGSA,A,3,09,23,07,08,27,16,30,,,,,,2.15,1.23,1.76*02
$GPGSV,4,1,14,03,13,176,21,07,53,305,38,08,27,129,28,09,74,343,40*70
$GPGSV,4,2,14,16,25,041,27,22,01,167,,23,59,114,30,26,00,041,*70
$GPGSV,4,3,14,27,27,084,27,28,09,213,,30,25,274,31,46,48,147,*7A
$GPGSV,4,4,14,48,48,207,38,51,50,162,37*72
$GPGLL,3309.05773,N,11708.73250,W,012459.00,A,A*73
$GPRMC,012500.00,A,3309.05765,N,11708.73253,W,0.234,,030117,,,A*62
$GPVTG,,T,,M,0.234,N,0.434,K,A*25
$GPGGA,012500.00,3309.05765,N,11708.73253,W,1,07,1.23,209.1,M,-33.2,M,,*6D
$GPGSA,A,3,09,23,07,08,27,16,30,,,,,,2.15,1.23,1.76*02
$GPGSV,4,1,14,03,13,176,20,07,53,305,33,08,27,129,18,09,74,343,34*7A
$GPGSV,4,2,14,16,25,041,27,22,01,167,,23,59,114,33,26,00,041,*73
$GPGSV,4,3,14,27,27,084,26,28,09,213,,30,25,274,24,46,48,147,*7F
$GPGSV,4,4,14,48,48,207,36,51,50,162,37*7C
$GPGLL,3309.05765,N,11708.73253,W,012500.00,A,A*7A
$GPRMC,012501.00,A,3309.05755,N,11708.73259,W,0.176,,030117,,,A*6F
$GPVTG,,T,,M,0.176,N,0.326,K,A*24
$GPGGA,012501.00,3309.05755,N,11708.73259,W,1,07,1.23,209.1,M,-33.2,M,,*65
$GPGSA,A,3,09,23,07,08,27,16,30,,,,,,2.15,1.23,1.76*02
$GPGSV,4,1,14,03,13,176,18,07,53,305,28,08,27,129,22,09,74,343,33*75
$GPGSV,4,2,14,16,25,041,34,22,01,167,,23,59,114,33,26,00,041,*71
$GPGSV,4,3,14,27,27,084,28,28,09,213,,30,25,274,24,46,48,147,*71
$GPGSV,4,4,14,48,48,207,37,51,50,162,39*73
$GPGLL,3309.05755,N,11708.73259,W,012501.00,A,A*72
$GPRMC,012502.00,A,3309.05747,N,11708.73259,W,0.073,,030117,,,A*6B
$GPVTG,,T,,M,0.073,N,0.136,K,A*23
$GPGGA,012502.00,3309.05747,N,11708.73259,W,1,07,1.23,209.3,M,-33.2,M,,*67
$GPGSA,A,3,09,23,07,08,27,16,30,,,,,,2.15,1.23,1.76*02
$GPGSV,4,1,14,03,13,176,,07,53,305,30,08,27,129,24,09,74,343,31*71
$GPGSV,4,2,14,16,25,041,35,22,01,167,,23,59,114,33,26,00,041,*70
$GPGSV,4,3,14,27,27,084,29,28,09,213,,30,25,274,24,46,48,147,*70
$GPGSV,4,4,14,48,48,207,38,51,50,162,38*7D
$GPGLL,3309.05747,N,11708.73259,W,012502.00,A,A*72
$GPRMC,012503.00,A,3309.05760,N,11708.73251,W,0.168,,030117,,,A*6C
$GPVTG,,T,,M,0.168,N,0.311,K,A*2F
$GPGGA,012503.00,3309.05760,N,11708.73251,W,1,07,1.23,209.3,M,-33.2,M,,*6B
$GPGSA,A,3,09,23,07,08,27,16,30,,,,,,2.15,1.23,1.76*02
$GPGSV,4,1,14,03,13,176,,07,53,305,30,08,27,129,24,09,74,343,31*71
$GPGSV,4,2,14,16,25,041,35,22,01,167,,23,59,114,33,26,00,041,*70
$GPGSV,4,3,14,27,27,084,30,28,10,213,,30,25,274,24,46,48,147,*70
$GPGSV,4,4,14,48,48,207,38,51,50,162,38*7D
$GPGLL,3309.05760,N,11708.73251,W,012503.00,A,A*7E
$GPRMC,012504.00,A,3309.05764,N,11708.73250,W,0.042,,030117,,,A*67
$GPVTG,,T,,M,0.042,N,0.077,K,A*25
$GPGGA,012504.00,3309.05764,N,11708.73250,W,1,07,1.23,209.5,M,-33.2,M,,*6F
$GPGSA,A,3,09,23,07,08,27,16,30,,,,,,2.15,1.23,1.76*02
$GPGSV,4,1,14,03,13,176,,07,53,305,30,08,27,129,25,09,74,343,31*70
$GPGSV,4,2,14,16,25,041,34,22,01,167,,23,59,114,33,26,00,041,*71
$GPGSV,4,3,14,27,27,084,30,28,10,213,,30,25,274,24,46,48,147,33*70
$GPGSV,4,4,14,48,48,207,37,51,50,162,38*72
$GPGLL,3309.05764,N,11708.73250,W,012504.00,A,A*7C
$GPRMC,012505.00,A,3309.05762,N,11708.73255,W,0.347,,030117,,,A*63
$GPVTG,,T,,M,0.347,N,0.643,K,A*22
$GPGGA,012505.00,3309.05762,N,11708.73255,W,1,07,1.23,209.8,M,-33.2,M,,*60
$GPGSA,A,3,09,23,07,08,27,16,30,,,,,,2.15,1.23,1.76*02
$GPGSV,4,1,14,03,13,176,,07,53,305,29,08,27,129,25,09,74,343,31*78
$GPGSV,4,2,14,16,25,041,34,22,01,167,,23,59,114,33,26,00,041,*71
$GPGSV,4,3,14,27,27,084,31,28,10,213,,30,25,274,24,46,48,147,34*76
$GPGSV,4,4,14,48,48,207,38,51,50,162,38*7D
$GPGLL,3309.05762,N,11708.73255,W,012505.00,A,A*7E
$GPRMC,012506.00,A,3309.05747,N,11708.73279,W,0.739,,030117,,,A*64
$GPVTG,,T,,M,0.739,N,1.368,K,A*22
$GPGGA,012506.00,3309.05747,N,11708.73279,W,1,07,1.23,209.3,M,-33.2,M,,*61
$GPGSA,A,3,09,23,07,08,27,16,30,,,,,,2.15,1.23,1.76*02
$GPGSV,4,1,14,03,13,176,,07,53,305,19,08,27,129,25,09,74,343,30*7A
$GPGSV,4,2,14,16,25,041,23,22,01,167,,23,59,114,28,26,00,041,*7D
$GPGSV,4,3,14,27,27,084,33,28,10,213,,30,25,274,23,46,48,147,34*73
$GPGSV,4,4,14,48,48,207,36,51,50,162,38*73
$GPGLL,3309.05747,N,11708.73279,W,012506.00,A,A*74
$GPRMC,012507.00,A,3309.05748,N,11708.73300,W,0.557,,030117,,,A*6F
$GPVTG,,T,,M,0.557,N,1.032,K,A*24
$GPGGA,012507.00,3309.05748,N,11708.73300,W,1,07,1.23,209.1,M,-33.2,M,,*62
$GPGSA,A,3,09,23,07,08,27,16,30,,,,,,2.15,1.23,1.76*02
$GPGSV,4,1,14,03,13,176,,07,53,305,19,08,27,129,31,09,74,343,22*7C
$GPGSV,4,2,14,16,25,041,20,22,01,167,14,23,59,114,34,26,00,041,*76
$GPGSV,4,3,14,27,27,084,31,28,10,213,,30,25,274,20,46,48,147,29*7E
$GPGSV,4,4,14,48,48,207,36,51,50,162,35*7E
$GPGLL,3309.05748,N,11708.73300,W,012507.00,A,A*75
$GPRMC,012508.00,A,3309.05756,N,11708.73307,W,0.262,,030117,,,A*69
$GPVTG,,T,,M,0.262,N,0.486,K,A*2F
$GPGGA,012508.00,3309.05756,N,11708.73307,W,1,06,1.93,209.0,M,-33.2,M,,*6E
$GPGSA,A,3,09,23,07,08,27,30,,,,,,,2.81,1.93,2.05*04
$GPGSV,4,1,14,03,13,176,,07,53,305,21,08,27,129,31,09,74,343,21*74
$GPGSV,4,2,14,16,25,041,,22,01,167,,23,59,114,34,26,00,041,*71
$GPGSV,4,3,14,27,27,084,30,28,10,213,23,30,25,274,15,46,48,147,28*79
$GPGSV,4,4,14,48,48,207,37,51,50,162,35*7F
$GPGLL,3309.05756,N,11708.73307,W,012508.00,A,A*72
$GPRMC,012509.00,A,3309.05755,N,11708.73329,W,0.930,,030117,,,A*6B
$GPVTG,,T,,M,0.930,N,1.722,K,A*2F
$GPGGA,012509.00,3309.05755,N,11708.73329,W,1,05,2.36,208.9,M,-33.2,M,,*67
$GPGSA,A,3,09,23,07,08,27,,,,,,,,3.88,2.36,3.08*0F
$GPGSV,4,1,14,03,13,176,,07,53,305,22,08,27,129,31,09,74,343,22*74
$GPGSV,4,2,14,16,25,041,17,22,01,167,,23,59,114,34,26,00,041,*77
$GPGSV,4,3,14,27,27,084,30,28,10,213,21,30,25,274,12,46,48,147,28*7C
$GPGSV,4,4,14,48,48,207,37,51,50,162,35*7F
$GPGLL,3309.05755,N,11708.73329,W,012509.00,A,A*7C
$GPRMC,012510.00,A,3309.05756,N,11708.73335,W,0.697,,030117,,,A*6F
$GPVTG,,T,,M,0.697,N,1.292,K,A*23
$GPGGA,012510.00,3309.05756,N,11708.73335,W,1,05,2.36,208.6,M,-33.2,M,,*6E
$GPGSA,A,3,09,23,07,08,27,,,,,,,,3.88,2.36,3.08*0F
$GPGSV,4,1,14,03,13,176,,07,53,305,22,08,27,129,25,09,74,343,22*71
$GPGSV,4,2,14,16,25,041,18,22,01,167,14,23,59,114,24,26,00,041,*7C
$GPGSV,4,3,14,27,27,084,34,28,10,213,19,30,25,274,11,46,48,147,29*71
$GPGSV,4,4,14,48,48,207,33,51,50,162,32*7C
$GPGLL,3309.05756,N,11708.73335,W,012510.00,A,A*7A
$GPRMC,012511.00,A,3309.05773,N,11708.73323,W,0.971,,030117,,,A*69
$GPVTG,,T,,M,0.971,N,1.799,K,A*2A
$GPGGA,012511.00,3309.05773,N,11708.73323,W,1,07,1.23,209.2,M,-33.2,M,,*6F
$GPGSA,A,3,09,23,07,08,27,16,30,,,,,,2.15,1.23,1.77*03
$GPGSV,4,1,14,03,13,176,,07,53,305,36,08,27,129,31,09,74,343,36*74
$GPGSV,4,2,14,16,25,041,29,22,01,167,12,23,59,114,42,26,00,041,*78
$GPGSV,4,3,14,27,27,084,34,28,10,213,18,30,25,274,28,46,48,147,30*72
$GPGSV,4,4,14,48,48,207,36,51,50,162,36*7D
$GPGLL,3309.05773,N,11708.73323,W,012511.00,A,A*7B
$GPRMC,012512.00,A,3309.05781,N,11708.73320,W,0.065,,030117,,,A*68
$GPVTG,,T,,M,0.065,N,0.121,K,A*22
$GPGGA,012512.00,3309.05781,N,11708.73320,W,1,07,1.23,209.7,M,-33.2,M,,*67
$GPGSA,A,3,09,23,07,08,27,16,30,,,,,,2.15,1.23,1.77*03
$GPGSV,4,1,14,03,13,176,,07,53,305,30,08,27,129,31,09,74,343,33*77
$GPGSV,4,2,14,16,25,041,27,22,01,167,09,23,59,114,33,26,00,041,*7A
$GPGSV,4,3,14,27,27,084,34,28,10,213,16,30,25,274,26,46,48,147,29*7A
$GPGSV,4,4,14,48,48,207,29,51,50,162,29*7D
$GPGLL,3309.05781,N,11708.73320,W,012512.00,A,A*76
$GPRMC,012513.00,A,3309.05794,N,11708.73302,W,0.084,,030117,,,A*62
$GPVTG,,T,,M,0.084,N,0.156,K,A*2D
$GPGGA,012513.00,3309.05794,N,11708.73302,W,1,07,1.23,209.6,M,-33.2,M,,*63
$GPGSA,A,3,09,23,07,08,27,16,30,,,,,,2.15,1.23,1.77*03
$GPGSV,4,1,14,03,13,176,,07,53,305,29,08,27,129,29,09,74,343,33*76
$GPGSV,4,2,14,16,25,041,25,22,01,167,08,23,59,114,31,26,00,041,*7B
$GPGSV,4,3,14,27,27,084,32,28,10,213,14,30,25,274,25,46,48,147,27*73
$GPGSV,4,4,14,48,48,207,27,51,50,162,27*7D
$GPGLL,3309.05794,N,11708.73302,W,012513.00,A,A*73
$GPRMC,012514.00,A,3309.05829,N,11708.73262,W,0.428,,030117,,,A*69
$GPVTG,,T,,M,0.428,N,0.793,K,A*20
$GPGGA,012514.00,3309.05829,N,11708.73262,W,1,07,1.23,210.5,M,-33.2,M,,*61
$GPGSA,A,3,09,23,07,08,27,16,30,,,,,,2.15,1.23,1.77*03
$GPGSV,4,1,14,03,13,176,,07,53,305,36,08,27,129,23,09,74,343,32*73
$GPGSV,4,2,14,16,25,041,22,22,01,167,08,23,59,114,34,26,00,041,*79
$GPGSV,4,3,14,27,27,084,26,28,10,213,13,30,25,274,31,46,48,147,*71
$GPGSV,4,4,14,48,48,207,30,51,50,162,32*7F
$GPGLL,3309.05829,N,11708.73262,W,012514.00,A,A*7A
$GPRMC,012515.00,A,3309.05842,N,11708.73263,W,0.711,,030117,,,A*6D
$GPVTG,,T,,M,0.711,N,1.316,K,A*21
$GPGGA,012515.00,3309.05842,N,11708.73263,W,1,07,1.23,209.9,M,-33.2,M,,*68
$GPGSA,A,3,09,23,07,08,27,16,30,,,,,,2.15,1.23,1.77*03
$GPGSV,4,1,14,03,13,176,,07,53,305,32,08,27,129,24,09,74,343,28*7B
$GPGSV,4,2,14,16,25,041,17,22,01,167,,23,59,114,29,26,00,041,*7B
$GPGSV,4,3,14,27,27,084,22,28,10,213,15,30,25,274,25,46,48,147,*76
$GPGSV,4,4,14,48,48,207,31,51,50,162,32*7E
$GPGLL,3309.05842,N,11708.73263,W,012515.00,A,A*77
$GPRMC,012516.00,A,3309.05853,N,11708.73288,W,1.561,,030117,,,A*6F
$GPVTG,,T,,M,1.561,N,2.890,K,A*23
$GPGGA,012516.00,3309.05853,N,11708.73288,W,1,07,1.23,210.1,M,-33.2,M,,*6E
$GPGSA,A,3,09,23,07,08,27,16,30,,,,,,2.15,1.23,1.77*03
$GPGSV,4,1,14,03,13,176,,07,53,305,32,08,27,129,23,09,74,343,36*73
$GPGSV,4,2,14,16,25,041,17,22,01,167,,23,59,114,29,26,00,041,*7B
$GPGSV,4,3,14,27,27,084,21,28,10,213,16,30,25,274,24,46,48,147,*77
$GPGSV,4,4,14,48,48,207,35,51,50,162,31*79
$GPGLL,3309.05853,N,11708.73288,W,012516.00,A,A*71
$GPRMC,012517.00,A,3309.05830,N,11708.73332,W,1.091,,030117,,,A*61
$GPVTG,,T,,M,1.091,N,2.020,K,A*2A
$GPGGA,012517.00,3309.05830,N,11708.73332,W,1,07,1.23,210.0,M,-33.2,M,,*6B
$GPGSA,A,3,09,23,07,08,27,16,30,,,,,,2.15,1.23,1.77*03
$GPGSV,4,1,14,03,13,176,17,07,53,305,35,08,27,129,24,09,74,343,37*74
$GPGSV,4,2,14,16,25,041,18,22,01,167,25,23,59,114,31,26,00,041,21*79
$GPGSV,4,3,14,27,27,084,23,28,10,213,16,30,25,274,32,46,48,147,*72
$GPGSV,4,4,14,48,48,207,39,51,50,162,31*75
$GPGLL,3309.05830,N,11708.73332,W,012517.00,A,A*75
$GPRMC,012518.00,A,3309.05818,N,11708.73353,W,1.189,,030117,,,A*6B
$GPVTG,,T,,M,1.189,N,2.201,K,A*23
$GPGGA,012518.00,3309.05818,N,11708.73353,W,1,06,1.67,209.8,M,-33.2,M,,*68
$GPGSA,A,3,09,23,07,27,16,30,,,,,,,2.53,1.67,1.90*00
$GPGSV,4,1,14,03,13,176,15,07,53,305,33,08,27,129,,09,74,343,36*77
$GPGSV,4,2,14,16,25,041,17,22,01,167,21,23,59,114,30,26,00,041,27*75
$GPGSV,4,3,14,27,27,084,26,28,10,213,,30,25,274,26,46,48,147,*75
$GPGSV,4,4,14,48,48,207,36,51,50,162,33*78
$GPGLL,3309.05818,N,11708.73353,W,012518.00,A,A*77
$GPRMC,012519.00,A,3309.05823,N,11708.73384,W,1.216,,030117,,,A*6D
$GPVTG,,T,,M,1.216,N,2.252,K,A*20
$GPGGA,012519.00,3309.05823,N,11708.73384,W,1,07,1.23,209.9,M,-33.2,M,,*6B
$GPGSA,A,3,09,23,07,08,27,16,30,,,,,,2.15,1.23,1.77*03
$GPGSV,4,1,14,03,13,176,13,07,53,305,33,08,27,129,31,09,74,343,37*72
$GPGSV,4,2,14,16,25,041,17,22,01,167,15,23,59,114,33,26,00,041,26*70
$GPGSV,4,3,14,27,27,084,26,28,10,213,20,30,25,274,31,46,48,147,*71
$GPGSV,4,4,14,48,48,207,32,51,50,162,33*7C
$GPGLL,3309.05823,N,11708.73384,W,012519.00,A,A*74
$GPRMC,012520.00,A,3309.05826,N,11708.73432,W,1.431,,030117,,,A*6B
$GPVTG,,T,,M,1.431,N,2.650,K,A*25
$GPGGA,012520.00,3309.05826,N,11708.73432,W,1,07,1.23,210.7,M,-33.2,M,,*68
$GPGSA,A,3,09,23,07,08,27,16,30,,,,,,2.15,1.23,1.77*03
$GPGSV,4,1,14,03,13,176,11,07,53,305,33,08,27,129,29,09,74,343,37*79
$GPGSV,4,2,14,16,25,041,19,22,01,167,,23,59,114,33,26,00,041,22*7E
$GPGSV,4,3,14,27,27,084,25,28,10,213,18,30,25,274,24,46,48,147,*7D
$GPGSV,4,4,14,48,48,207,33,51,50,162,31*7F
$GPGLL,3309.05826,N,11708.73432,W,012520.00,A,A*71
$GPRMC,012521.00,A,3309.05821,N,11708.73500,W,1.341,,030117,,,A*6D
$GPVTG,,T,,M,1.341,N,2.484,K,A*2E
$GPGGA,012521.00,3309.05821,N,11708.73500,W,1,07,1.23,210.8,M,-33.2,M,,*61
$GPGSA,A,3,09,23,07,08,27,16,30,,,,,,2.15,1.23,1.77*03
$GPGSV,4,1,14,03,13,176,11,07,53,305,35,08,27,129,27,09,74,343,36*70
$GPGSV,4,2,14,16,25,041,19,22,01,167,21,23,59,114,33,26,00,041,17*7B
$GPGSV,4,3,14,27,27,084,25,28,10,213,20,30,25,274,22,46,48,147,*70
$GPGSV,4,4,14,48,48,207,33,51,50,162,30*7E
$GPGLL,3309.05821,N,11708.73500,W,012521.00,A,A*77
$GPRMC,012522.00,A,3309.05757,N,11708.73577,W,2.002,265.80,030117,,,A*70
$GPVTG,265.80,T,,M,2.002,N,3.708,K,A*38
$GPGGA,012522.00,3309.05757,N,11708.73577,W,1,07,1.23,211.5,M,-33.2,M,,*60
$GPGSA,A,3,09,23,07,08,27,16,30,,,,,,2.15,1.23,1.77*03
$GPGSV,4,1,14,03,13,176,09,07,53,305,32,08,27,129,25,09,74,343,29*72
$GPGSV,4,2,14,16,25,041,19,22,01,167,21,23,59,114,32,26,00,041,*7C
$GPGSV,4,3,14,27,27,084,26,28,10,213,23,30,25,274,23,46,48,147,*71
$GPGSV,4,4,14,48,48,207,32,51,50,162,34*7B
$GPGLL,3309.05757,N,11708.73577,W,012522.00,A,A*7A
$GPRMC,012523.00,A,3309.05713,N,11708.73628,W,1.886,,030117,,,A*68
$GPVTG,,T,,M,1.886,N,3.493,K,A*29
$GPGGA,012523.00,3309.05713,N,11708.73628,W,1,06,1.28,211.2,M,-33.2,M,,*65
$GPGSA,A,3,09,23,07,08,16,30,,,,,,,2.23,1.28,1.82*02
$GPGSV,4,1,15,03,13,176,,05,00,327,,07,53,305,26,08,27,129,23*7F
$GPGSV,4,2,15,09,74,343,29,16,25,041,19,22,01,167,21,23,59,114,36*7D
$GPGSV,4,3,15,26,00,041,20,27,27,084,,28,10,213,,30,25,274,21*78
$GPGSV,4,4,15,46,48,147,,48,48,207,34,51,50,162,27*42
$GPGLL,3309.05713,N,11708.73628,W,012523.00,A,A*72
$GPRMC,012524.00,A,3309.05626,N,11708.73699,W,3.129,220.00,030117,,,A*72
$GPVTG,220.00,T,,M,3.129,N,5.794,K,A*3B
$GPGGA,012524.00,3309.05626,N,11708.73699,W,1,06,1.28,210.7,M,-33.2,M,,*6B
$GPGSA,A,3,09,23,07,08,16,30,,,,,,,2.23,1.28,1.82*02
$GPGSV,4,1,15,03,13,176,,05,00,327,,07,53,305,28,08,27,129,29*7B
$GPGSV,4,2,15,09,74,343,31,16,25,041,20,22,01,167,,23,59,114,36*7D
$GPGSV,4,3,15,26,00,041,25,27,27,084,27,28,10,213,19,30,25,274,20*71
$GPGSV,4,4,15,46,48,147,,48,48,207,31,51,50,162,31*40
$GPGLL,3309.05626,N,11708.73699,W,012524.00,A,A*78
$GPRMC,012525.00,A,3309.05617,N,11708.73675,W,1.324,,030117,,,A*60
$GPVTG,,T,,M,1.324,N,2.453,K,A*27
$GPGGA,012525.00,3309.05617,N,11708.73675,W,1,07,1.23,210.4,M,-33.2,M,,*63
$GPGSA,A,3,09,23,07,08,27,16,30,,,,,,2.15,1.23,1.77*03
$GPGSV,4,1,15,03,13,176,22,05,00,327,,07,53,305,29,08,27,129,30*72
$GPGSV,4,2,15,09,74,343,33,16,25,041,20,22,01,167,,23,59,114,38*71
$GPGSV,4,3,15,26,00,041,,27,27,084,27,28,10,213,,30,25,274,18*75
$GPGSV,4,4,15,46,48,147,,48,48,207,31,51,50,162,31*40
$GPGLL,3309.05617,N,11708.73675,W,012525.00,A,A*79
$GPRMC,012526.00,A,3309.05591,N,11708.73656,W,1.020,,030117,,,A*68
$GPVTG,,T,,M,1.020,N,1.889,K,A*28
$GPGGA,012526.00,3309.05591,N,11708.73656,W,1,07,1.23,211.0,M,-33.2,M,,*69
$GPGSA,A,3,09,23,07,08,27,16,30,,,,,,2.15,1.23,1.77*03
$GPGSV,4,1,15,03,13,176,,05,00,327,,07,53,305,30,08,27,128,31*7A
$GPGSV,4,2,15,09,74,343,34,16,25,041,21,22,01,167,23,23,59,114,34*7A
$GPGSV,4,3,15,26,00,041,22,27,27,084,26,28,10,213,21,30,25,274,17*78
$GPGSV,4,4,15,46,48,147,,48,48,207,32,51,50,162,31*43
$GPGLL,3309.05591,N,11708.73656,W,012526.00,A,A*76
$GPRMC,012527.00,A,3309.05552,N,11708.73661,W,1.543,210.61,030117,,,A*78
$GPVTG,210.61,T,,M,1.543,N,2.857,K,A*32
$GPGGA,012527.00,3309.05552,N,11708.73661,W,1,07,1.23,211.7,M,-33.2,M,,*64
$GPGSA,A,3,09,23,07,08,27,16,30,,,,,,2.15,1.23,1.77*03
$GPGSV,4,1,15,03,13,176,24,05,00,327,,07,53,305,30,08,27,128,30*7D
$GPGSV,4,2,15,09,74,343,34,16,25,041,21,22,01,167,23,23,59,114,36*78
$GPGSV,4,3,15,26,00,041,20,27,27,084,27,28,10,213,21,30,25,274,16*7A
$GPGSV,4,4,15,46,48,147,,48,48,207,30,51,50,162,31*41
$GPGLL,3309.05552,N,11708.73661,W,012527.00,A,A*7C
$GPRMC,012528.00,A,3309.05501,N,11708.73668,W,1.301,,030117,,,A*62
$GPVTG,,T,,M,1.301,N,2.410,K,A*27
$GPGGA,012528.00,3309.05501,N,11708.73668,W,1,06,1.84,212.2,M,-33.2,M,,*6E
$GPGSA,A,3,09,23,07,08,27,16,,,,,,,3.44,1.84,2.91*03
$GPGSV,4,1,15,03,13,176,24,05,00,327,20,07,53,305,30,08,27,128,24*7A
$GPGSV,4,2,15,09,74,343,35,16,25,041,23,22,01,167,23,23,59,114,38*75
$GPGSV,4,3,15,26,00,041,,27,27,084,28,28,10,213,22,30,25,274,*73
$GPGSV,4,4,15,46,48,147,,48,48,207,32,51,50,162,*41
$GPGLL,3309.05501,N,11708.73668,W,012528.00,A,A*7C
$GPRMC,012529.00,A,3309.05471,N,11708.73661,W,1.319,,030117,,,A*65
$GPVTG,,T,,M,1.319,N,2.444,K,A*2F
$GPGGA,012529.00,3309.05471,N,11708.73661,W,1,07,1.84,212.2,M,-33.2,M,,*61
$GPGSA,A,3,09,23,07,08,27,16,03,,,,,,3.44,1.84,2.91*00
$GPGSV,4,1,15,03,13,176,23,05,00,327,25,07,53,305,30,08,27,128,26*7A
$GPGSV,4,2,15,09,74,343,35,16,25,041,23,22,01,167,23,23,59,114,34*79
$GPGSV,4,3,15,26,00,041,,27,27,084,29,28,10,213,21,30,25,274,17*77
$GPGSV,4,4,15,46,48,147,,48,48,207,34,51,50,162,31*45
$GPGLL,3309.05471,N,11708.73661,W,012529.00,A,A*72
$GPRMC,012530.00,A,3309.05427,N,11708.73647,W,2.200,199.11,030117,,,A*7F
$GPVTG,199.11,T,,M,2.200,N,4.074,K,A*3B
$GPGGA,012530.00,3309.05427,N,11708.73647,W,1,06,1.84,212.3,M,-33.2,M,,*6E
$GPGSA,A,3,09,23,07,08,27,16,,,,,,,3.45,1.84,2.91*02
$GPGSV,4,1,15,03,13,176,,05,00,327,,07,53,305,31,08,27,128,25*7E
$GPGSV,4,2,15,09,74,343,35,16,25,041,22,22,01,167,22,23,59,114,34*79
$GPGSV,4,3,15,26,00,041,21,27,27,084,28,28,10,213,19,30,25,274,16*7F
$GPGSV,4,4,15,46,48,147,,48,48,207,30,51,50,162,31*41
$GPGLL,3309.05427,N,11708.73647,W,012530.00,A,A*7D
$GPRMC,012531.00,A,3309.05418,N,11708.73613,W,1.344,,030117,,,A*6E
$GPVTG,,T,,M,1.344,N,2.489,K,A*26
$GPGGA,012531.00,3309.05418,N,11708.73613,W,1,06,1.84,212.8,M,-33.2,M,,*69
$GPGSA,A,3,09,23,07,08,27,16,,,,,,,3.45,1.84,2.91*02
$GPGSV,4,1,15,03,13,176,,05,00,327,21,07,53,305,33,08,27,128,31*7A
$GPGSV,4,2,15,09,74,343,38,16,25,041,21,22,01,167,22,23,59,114,33*70
$GPGSV,4,3,15,26,00,041,18,27,27,084,27,28,10,213,22,30,25,274,20*77
$GPGSV,4,4,15,46,48,147,,48,48,207,37,51,50,162,37*40
$GPGLL,3309.05418,N,11708.73613,W,012531.00,A,A*71
$GPRMC,012532.00,A,3309.05377,N,11708.73610,W,1.239,,030117,,,A*6B
$GPVTG,,T,,M,1.239,N,2.295,K,A*26
$GPGGA,012532.00,3309.05377,N,11708.73610,W,1,06,1.84,213.5,M,-33.2,M,,*6B
$GPGSA,A,3,09,23,07,08,27,16,,,,,,,3.45,1.84,2.91*02
$GPGSV,4,1,15,03,13,176,14,05,00,327,19,07,53,305,33,08,27,128,30*75
$GPGSV,4,2,15,09,74,343,38,16,25,041,29,22,01,167,22,23,59,114,32*79
$GPGSV,4,3,15,26,00,041,,27,27,084,29,28,10,213,22,30,25,274,19*7A
$GPGSV,4,4,15,46,48,147,,48,48,207,37,51,50,162,34*43
$GPGLL,3309.05377,N,11708.73610,W,012532.00,A,A*7F
$GPRMC,012533.00,A,3309.05375,N,11708.73621,W,0.350,,030117,,,A*65
$GPVTG,,T,,M,0.350,N,0.648,K,A*2F
$GPGGA,012533.00,3309.05375,N,11708.73621,W,1,06,1.84,213.4,M,-33.2,M,,*6B
$GPGSA,A,3,09,23,07,08,27,16,,,,,,,3.45,1.84,2.91*02
$GPGSV,4,1,15,03,13,176,,05,00,327,17,07,53,305,32,08,27,128,31*7E
$GPGSV,4,2,15,09,74,343,38,16,25,041,30,22,01,167,23,23,59,114,33*71
$GPGSV,4,3,15,26,00,041,21,27,27,084,31,28,10,213,21,30,25,274,19*73
$GPGSV,4,4,15,46,48,147,,48,48,207,37,51,50,162,34*43
$GPGLL,3309.05375,N,11708.73621,W,012533.00,A,A*7E
$GPRMC,012534.00,A,3309.05386,N,11708.73621,W,0.078,,030117,,,A*67
$GPVTG,,T,,M,0.078,N,0.144,K,A*2D
$GPGGA,012534.00,3309.05386,N,11708.73621,W,1,06,1.84,213.0,M,-33.2,M,,*64
$GPGSA,A,3,09,23,07,08,27,16,,,,,,,3.45,1.84,2.91*02
$GPGSV,4,1,15,03,13,176,15,05,00,327,17,07,53,305,31,08,27,128,32*7A
$GPGSV,4,2,15,09,74,343,38,16,25,041,30,22,01,167,23,23,59,114,34*76
$GPGSV,4,3,15,26,00,041,,27,27,084,32,28,10,213,23,30,25,274,19*71
$GPGSV,4,4,15,46,48,147,,48,48,207,37,51,50,162,33*44
$GPGLL,3309.05386,N,11708.73621,W,012534.00,A,A*75
$GPRMC,012535.00,A,3309.05403,N,11708.73597,W,0.637,,030117,,,A*6F
$GPVTG,,T,,M,0.637,N,1.180,K,A*29
$GPGGA,012535.00,3309.05403,N,11708.73597,W,1,07,1.23,213.7,M,-33.2,M,,*6A
$GPGSA,A,3,09,23,07,08,27,16,30,,,,,,2.15,1.23,1.77*03
$GPGSV,4,1,15,03,13,176,,05,00,327,,07,53,305,31,08,27,128,31*7B
$GPGSV,4,2,15,09,74,343,38,16,25,041,30,22,01,167,22,23,59,114,34*77
$GPGSV,4,3,15,26,00,041,13,27,27,084,31,28,10,213,21,30,25,274,19*72
$GPGSV,4,4,15,46,48,147,,48,48,207,37,51,50,162,33*44
$GPGLL,3309.05403,N,11708.73597,W,012535.00,A,A*70
$GPRMC,012536.00,A,3309.05395,N,11708.73548,W,1.723,,030117,,,A*63
$GPVTG,,T,,M,1.723,N,3.190,K,A*2F
$GPGGA,012536.00,3309.05395,N,11708.73548,W,1,07,1.23,213.8,M,-33.2,M,,*6C
$GPGSA,A,3,09,23,07,08,27,16,30,,,,,,2.15,1.23,1.77*03
$GPGSV,4,1,15,03,13,176,16,05,00,327,19,07,53,305,35,08,27,128,29*79
$GPGSV,4,2,15,09,74,343,38,16,25,041,30,22,01,167,22,23,59,114,38*7B
$GPGSV,4,3,15,26,00,041,09,27,27,084,25,28,10,213,,30,25,274,20*75
$GPGSV,4,4,15,46,48,147,,48,48,207,34,51,50,162,36*42
$GPGLL,3309.05395,N,11708.73548,W,012536.00,A,A*79
$GPRMC,012537.00,A,3309.05385,N,11708.73487,W,1.635,,030117,,,A*67
$GPVTG,,T,,M,1.635,N,3.028,K,A*2B
$GPGGA,012537.00,3309.05385,N,11708.73487,W,1,07,1.23,214.5,M,-33.2,M,,*64
$GPGSA,A,3,09,23,07,08,27,16,30,,,,,,2.15,1.23,1.77*03
$GPGSV,4,1,15,03,13,176,16,05,00,327,25,07,53,305,32,08,27,128,26*7E
$GPGSV,4,2,15,09,74,343,39,16,25,041,23,22,01,167,23,23,59,114,38*79
$GPGSV,4,3,15,26,00,041,,27,27,084,26,28,10,213,,30,25,274,23*7C
$GPGSV,4,4,15,46,48,147,,48,48,207,35,51,50,162,40*42
$GPGLL,3309.05385,N,11708.73487,W,012537.00,A,A*7B
$GPRMC,012538.00,A,3309.05377,N,11708.73459,W,1.511,146.56,030117,,,A*7D
$GPVTG,146.56,T,,M,1.511,N,2.798,K,A*3D
$GPGGA,012538.00,3309.05377,N,11708.73459,W,1,07,1.23,214.5,M,-33.2,M,,*65
$GPGSA,A,3,09,23,07,08,27,16,30,,,,,,2.15,1.23,1.77*03
$GPGSV,4,1,15,03,13,176,16,05,00,327,25,07,53,305,36,08,27,128,32*7F
$GPGSV,4,2,15,09,74,343,40,16,25,041,31,22,01,167,23,23,59,114,39*75
$GPGSV,4,3,15,26,00,041,20,27,27,084,33,28,10,213,21,30,25,274,28*72
$GPGSV,4,4,15,46,48,147,,48,48,207,35,51,50,162,40*42
$GPGLL,3309.05377,N,11708.73459,W,012538.00,A,A*7A
$GPRMC,012539.00,A,3309.05356,N,11708.73400,W,1.583,121.25,030117,,,A*7D
$GPVTG,121.25,T,,M,1.583,N,2.932,K,A*3D
$GPGGA,012539.00,3309.05356,N,11708.73400,W,1,07,1.23,215.3,M,-33.2,M,,*6C
$GPGSA,A,3,09,23,07,08,27,16,30,,,,,,2.15,1.23,1.77*03
$GPGSV,4,1,15,03,13,176,15,05,00,327,,07,53,305,35,08,27,128,31*7B
$GPGSV,4,2,15,09,74,343,40,16,25,041,30,22,01,167,23,23,59,114,38*75
$GPGSV,4,3,15,26,00,041,21,27,27,084,29,28,10,213,21,30,25,274,32*73
$GPGSV,4,4,15,46,48,147,,48,48,207,35,51,50,162,38*4D
$GPGLL,3309.05356,N,11708.73400,W,012539.00,A,A*74
$GPRMC,012540.00,A,3309.05339,N,11708.73350,W,1.539,106.75,030117,,,A*79
$GPVTG,106.75,T,,M,1.539,N,2.851,K,A*38
$GPGGA,012540.00,3309.05339,N,11708.73350,W,1,07,1.23,215.4,M,-33.2,M,,*6E
$GPGSA,A,3,09,23,07,08,27,16,30,,,,,,2.15,1.23,1.77*03
$GPGSV,4,1,15,03,13,176,,05,00,327,,07,53,305,34,08,27,128,34*7B
$GPGSV,4,2,15,09,74,343,39,16,25,041,30,22,01,167,23,23,59,114,38*7B
$GPGSV,4,3,15,26,00,041,22,27,27,084,29,28,10,213,,30,25,274,30*71
$GPGSV,4,4,15,46,48,147,,48,48,207,35,51,50,162,39*4C
$GPGLL,3309.05339,N,11708.73350,W,012540.00,A,A*71
$GPRMC,012541.00,A,3309.05329,N,11708.73301,W,1.578,98.20,030117,,,A*4E
$GPVTG,98.20,T,,M,1.578,N,2.922,K,A*0E
$GPGGA,012541.00,3309.05329,N,11708.73301,W,1,07,1.23,215.4,M,-33.2,M,,*6A
$GPGSA,A,3,09,23,07,08,27,16,30,,,,,,2.15,1.23,1.77*03
$GPGSV,4,1,15,03,13,176,,05,00,327,20,07,53,305,34,08,27,128,30*7D
$GPGSV,4,2,15,09,74,343,40,16,25,041,31,22,01,167,22,23,58,114,37*7B
$GPGSV,4,3,15,26,00,041,22,27,27,084,27,28,10,213,22,30,25,274,30*7F
$GPGSV,4,4,15,46,48,147,33,48,48,207,35,51,50,162,36*43
$GPGLL,3309.05329,N,11708.73301,W,012541.00,A,A*75
$GPRMC,012542.00,A,3309.05324,N,11708.73253,W,1.719,87.53,030117,,,A*49
$GPVTG,87.53,T,,M,1.719,N,3.183,K,A*03
$GPGGA,012542.00,3309.05324,N,11708.73253,W,1,07,1.23,215.4,M,-33.2,M,,*62
$GPGSA,A,3,09,23,07,08,27,16,30,,,,,,2.15,1.23,1.77*03
$GPGSV,4,1,15,03,13,176,14,05,00,327,,07,53,305,32,08,27,128,22*7F
$GPGSV,4,2,15,09,74,343,39,16,25,041,32,22,01,167,,23,58,114,36*77
$GPGSV,4,3,15,26,00,041,22,27,27,084,27,28,10,213,,30,25,274,29*77
$GPGSV,4,4,15,46,48,147,34,48,48,207,34,51,50,162,35*46
$GPGLL,3309.05324,N,11708.73253,W,012542.00,A,A*7D
$GPRMC,012543.00,A,3309.05331,N,11708.73200,W,1.631,79.75,030117,,,A*44
$GPVTG,79.75,T,,M,1.631,N,3.020,K,A*05
$GPGGA,012543.00,3309.05331,N,11708.73200,W,1,07,1.23,215.4,M,-33.2,M,,*61
$GPGSA,A,3,09,23,07,08,27,16,30,,,,,,2.15,1.23,1.77*03
$GPGSV,4,1,15,03,13,176,,05,00,327,20,07,53,305,32,08,27,128,23*79
$GPGSV,4,2,15,09,74,343,38,16,25,041,25,22,01,167,22,23,58,114,37*71
$GPGSV,4,3,15,26,00,041,22,27,27,084,25,28,10,213,,30,25,274,28*74
$GPGSV,4,4,15,46,48,147,33,48,48,207,30,51,50,162,31*41
$GPGLL,3309.05331,N,11708.73200,W,012543.00,A,A*7E
$GPRMC,012544.00,A,3309.05314,N,11708.73155,W,1.162,,030117,,,A*64
$GPVTG,,T,,M,1.162,N,2.152,K,A*23
$GPGGA,012544.00,3309.05314,N,11708.73155,W,1,07,1.23,215.6,M,-33.2,M,,*60
$GPGSA,A,3,09,23,07,08,27,16,30,,,,,,2.15,1.23,1.77*03
$GPGSV,4,1,15,03,13,176,24,05,00,327,25,07,53,305,33,08,27,128,22*7A
$GPGSV,4,2,15,09,74,343,38,16,25,041,27,22,01,167,19,23,58,114,39*75
$GPGSV,4,3,15,26,-1,041,19,27,27,084,24,28,10,213,,30,25,274,29*60
$GPGSV,4,4,15,46,48,147,30,48,48,207,31,51,50,162,31*43
$GPGLL,3309.05314,N,11708.73155,W,012544.00,A,A*7D
$GPRMC,012545.00,A,3309.05339,N,11708.73109,W,1.463,70.38,030117,,,A*45
$GPVTG,70.38,T,,M,1.463,N,2.709,K,A*0D
$GPGGA,012545.00,3309.05339,N,11708.73109,W,1,07,1.23,215.5,M,-33.2,M,,*64
$GPGSA,A,3,09,23,07,08,27,16,30,,,,,,2.15,1.23,1.77*03
$GPGSV,4,1,14,03,13,176,23,05,00,327,25,07,53,305,34,08,27,128,20*79
$GPGSV,4,2,14,09,74,343,38,16,25,041,27,22,01,167,15,23,58,114,31*70
$GPGSV,4,3,14,27,27,084,21,28,10,213,19,30,25,274,29,46,48,147,28*7F
$GPGSV,4,4,14,48,48,207,31,51,50,162,35*79
$GPGLL,3309.05339,N,11708.73109,W,012545.00,A,A*7A
$GPRMC,012546.00,A,3309.05367,N,11708.73068,W,1.474,,030117,,,A*6F
$GPVTG,,T,,M,1.474,N,2.729,K,A*2B
$GPGGA,012546.00,3309.05367,N,11708.73068,W,1,08,1.23,215.6,M,-33.2,M,,*66
$GPGSA,A,3,09,23,07,08,27,16,30,03,,,,,2.15,1.23,1.77*00
$GPGSV,4,1,14,03,13,176,23,05,00,327,,07,53,305,34,08,27,128,19*74
$GPGSV,4,2,14,09,74,343,40,16,25,041,29,22,01,167,24,23,58,114,29*7A
$GPGSV,4,3,14,27,27,084,25,28,10,213,,30,25,274,27,46,48,147,27*72
$GPGSV,4,4,14,48,48,207,31,51,50,162,30*7C
$GPGLL,3309.05367,N,11708.73068,W,012546.00,A,A*74
$GPRMC,012547.00,A,3309.05390,N,11708.73028,W,1.517,,030117,,,A*66
$GPVTG,,T,,M,1.517,N,2.810,K,A*2A
$GPGGA,012547.00,3309.05390,N,11708.73028,W,1,07,1.23,215.3,M,-33.2,M,,*61
$GPGSA,A,3,09,23,07,08,27,16,30,,,,,,2.15,1.23,1.77*03
$GPGSV,4,1,14,03,13,176,,05,00,327,22,07,53,305,35,08,27,128,18*75
$GPGSV,4,2,14,09,74,343,41,16,25,041,30,22,01,167,22,23,58,114,30*7D
$GPGSV,4,3,14,27,27,084,26,28,10,213,21,30,25,274,23,46,48,147,27*76
$GPGSV,4,4,14,48,48,207,32,51,50,162,27*79
$GPGLL,3309.05390,N,11708.73028,W,012547.00,A,A*79
$GPRMC,012548.00,A,3309.05432,N,11708.73000,W,1.302,41.97,030117,,,A*4B
$GPVTG,41.97,T,,M,1.302,N,2.412,K,A*03
$GPGGA,012548.00,3309.05432,N,11708.73000,W,1,07,1.23,215.4,M,-33.2,M,,*6C
$GPGSA,A,3,09,23,07,08,27,16,30,,,,,,2.15,1.23,1.77*03
$GPGSV,4,1,14,03,13,176,17,05,00,327,22,07,53,305,34,08,27,128,19*73
$GPGSV,4,2,14,09,74,343,40,16,25,041,29,22,01,167,22,23,58,114,37*73
$GPGSV,4,3,14,27,27,084,29,28,10,213,22,30,25,275,21,46,48,147,27*79
$GPGSV,4,4,14,48,48,207,32,51,50,162,27*79
$GPGLL,3309.05432,N,11708.73000,W,012548.00,A,A*73
$GPRMC,012549.00,A,3309.05472,N,11708.72973,W,1.270,33.19,030117,,,A*45
$GPVTG,33.19,T,,M,1.270,N,2.352,K,A*07
$GPGGA,012549.00,3309.05472,N,11708.72973,W,1,07,1.23,215.3,M,-33.2,M,,*62
$GPGSA,A,3,09,23,07,08,27,16,30,,,,,,2.15,1.23,1.77*03
$GPGSV,4,1,14,03,13,176,16,05,00,327,23,07,53,305,34,08,27,128,19*73
$GPGSV,4,2,14,09,74,343,38,16,25,041,20,22,01,167,20,23,58,114,32*72
$GPGSV,4,3,14,27,27,084,31,28,10,213,22,30,25,275,19,46,48,147,28*74
$GPGSV,4,4,14,48,48,207,32,51,50,162,27*79
$GPGLL,3309.05472,N,11708.72973,W,012549.00,A,A*7A
$GPRMC,012550.00,A,3309.05513,N,11708.72945,W,1.232,25.61,030117,,,A*40
$GPVTG,25.61,T,,M,1.232,N,2.283,K,A*04
$GPGGA,012550.00,3309.05513,N,11708.72945,W,1,07,1.23,214.7,M,-33.2,M,,*6C
$GPGSA,A,3,09,23,07,08,27,16,30,,,,,,2.15,1.23,1.77*03
$GPGSV,4,1,14,03,13,176,,05,00,327,23,07,53,305,35,08,27,128,21*7E
$GPGSV,4,2,14,09,74,343,39,16,25,041,20,22,01,167,19,23,58,114,34*7F
$GPGSV,4,3,14,27,27,084,35,28,10,213,23,30,25,275,23,46,48,147,30*71
$GPGSV,4,4,14,48,48,207,36,51,50,162,32*79
$GPGLL,3309.05513,N,11708.72945,W,012550.00,A,A*71
$GPRMC,012551.00,A,3309.05560,N,11708.72921,W,1.398,22.75,030117,,,A*44
$GPVTG,22.75,T,,M,1.398,N,2.589,K,A*0A
$GPGGA,012551.00,3309.05560,N,11708.72921,W,1,07,1.23,214.6,M,-33.2,M,,*6A
$GPGSA,A,3,09,23,07,08,27,16,30,,,,,,2.15,1.23,1.77*03
$GPGSV,4,1,14,03,13,176,,05,00,327,20,07,53,305,35,08,27,128,21*7D
$GPGSV,4,2,14,09,74,343,40,16,25,041,21,22,01,167,15,23,58,114,34*7C
$GPGSV,4,3,14,27,27,084,34,28,10,213,20,30,25,275,31,46,48,147,29*78
$GPGSV,4,4,14,48,48,207,35,51,50,162,30*78
$GPGLL,3309.05560,N,11708.72921,W,012551.00,A,A*76
$GPRMC,012552.00,A,3309.05591,N,11708.72912,W,1.284,21.45,030117,,,A*45
$GPVTG,21.45,T,,M,1.284,N,2.378,K,A*0E
$GPGGA,012552.00,3309.05591,N,11708.72912,W,1,07,1.23,214.3,M,-33.2,M,,*62
$GPGSA,A,3,09,23,07,08,27,16,30,,,,,,2.15,1.23,1.77*03
$GPGSV,4,1,14,03,13,176,16,05,00,327,21,07,53,305,34,08,27,128,21*7A
$GPGSV,4,2,14,09,74,343,39,16,25,041,24,22,01,167,14,23,58,114,31*73
$GPGSV,4,3,14,27,27,084,36,28,10,213,17,30,25,275,30,46,48,147,29*7F
$GPGSV,4,4,14,48,48,207,34,51,50,162,29*71
$GPGLL,3309.05591,N,11708.72912,W,012552.00,A,A*7B
$GPRMC,012553.00,A,3309.05634,N,11708.72908,W,1.258,,030117,,,A*6E
$GPVTG,,T,,M,1.258,N,2.330,K,A*2F
$GPGGA,012553.00,3309.05634,N,11708.72908,W,1,07,1.23,214.4,M,-33.2,M,,*63
$GPGSA,A,3,09,23,07,08,27,16,30,,,,,,2.15,1.23,1.77*03
$GPGSV,4,1,14,03,13,176,15,05,00,327,18,07,53,305,30,08,27,128,28*7E
$GPGSV,4,2,14,09,74,343,40,16,25,041,31,22,01,167,14,23,58,114,31*79
$GPGSV,4,3,14,27,27,084,19,28,10,213,16,30,25,275,28,46,48,147,28*7B
$GPGSV,4,4,14,48,48,207,35,51,50,162,28*71
$GPGLL,3309.05634,N,11708.72908,W,012553.00,A,A*7D
$GPRMC,012554.00,A,3309.05676,N,11708.72921,W,1.477,351.63,030117,,,A*73
$GPVTG,351.63,T,,M,1.477,N,2.735,K,A*39
$GPGGA,012554.00,3309.05676,N,11708.72921,W,1,07,1.23,214.7,M,-33.2,M,,*6A
$GPGSA,A,3,09,23,07,08,27,16,30,,,,,,2.15,1.23,1.77*03
$GPGSV,4,1,14,03,13,176,,05,00,327,14,07,53,305,34,08,27,128,28*72
$GPGSV,4,2,14,09,74,343,40,16,25,041,35,22,01,167,13,23,58,114,32*79
$GPGSV,4,3,14,27,27,084,22,28,10,213,15,30,25,275,29,46,48,147,29*70
$GPGSV,4,4,14,48,48,207,31,51,50,162,27*7A
$GPGLL,3309.05676,N,11708.72921,W,012554.00,A,A*77
$GPRMC,012555.00,A,3309.05699,N,11708.72971,W,1.469,,030117,,,A*65
$GPVTG,,T,,M,1.469,N,2.720,K,A*2E
$GPGGA,012555.00,3309.05699,N,11708.72971,W,1,07,1.23,214.4,M,-33.2,M,,*6C
$GPGSA,A,3,09,23,07,08,27,16,30,,,,,,2.15,1.23,1.77*03
$GPGSV,4,1,14,03,13,176,,05,00,327,15,07,53,305,37,08,27,128,27*7F
$GPGSV,4,2,14,09,74,343,38,16,25,041,25,22,01,167,,23,58,114,35*72
$GPGSV,4,3,14,27,27,084,21,28,10,213,,30,25,275,32,46,48,147,28*7C
$GPGSV,4,4,14,48,48,207,31,51,50,162,31*7D
$GPGLL,3309.05699,N,11708.72971,W,012555.00,A,A*72
$GPRMC,012556.00,A,3309.05707,N,11708.73005,W,0.971,,030117,,,A*6E
$GPVTG,,T,,M,0.971,N,1.799,K,A*2A
$GPGGA,012556.00,3309.05707,N,11708.73005,W,1,07,1.23,214.3,M,-33.2,M,,*65
$GPGSA,A,3,09,23,07,08,27,16,30,,,,,,2.15,1.23,1.77*03
$GPGSV,4,1,14,03,13,176,21,05,00,327,16,07,53,305,34,08,27,128,28*73
$GPGSV,4,2,14,09,74,343,36,16,25,041,24,22,01,167,,23,58,114,36*7E
$GPGSV,4,3,14,27,27,084,23,28,10,213,21,30,25,275,30,46,48,147,28*7F
$GPGSV,4,4,14,48,48,207,35,51,50,162,30*78
$GPGLL,3309.05707,N,11708.73005,W,012556.00,A,A*7C
$GPRMC,012557.00,A,3309.05721,N,11708.73036,W,1.138,,030117,,,A*6F
$GPVTG,,T,,M,1.138,N,2.107,K,A*2C
$GPGGA,012557.00,3309.05721,N,11708.73036,W,1,07,1.23,214.0,M,-33.2,M,,*63
$GPGSA,A,3,09,23,07,08,27,16,30,,,,,,2.15,1.23,1.77*03
$GPGSV,4,1,14,03,13,176,21,05,00,327,15,07,53,305,34,08,27,128,27*7F
$GPGSV,4,2,14,09,74,343,35,16,25,041,23,22,01,167,21,23,58,114,35*7A
$GPGSV,4,3,14,27,27,084,26,28,10,213,18,30,25,275,23,46,48,147,27*7D
$GPGSV,4,4,14,48,48,207,34,51,50,162,32*7B
$GPGLL,3309.05721,N,11708.73036,W,012557.00,A,A*79
$GPRMC,012558.00,A,3309.05716,N,11708.73068,W,0.391,,030117,,,A*6F
$GPVTG,,T,,M,0.391,N,0.724,K,A*29
$GPGGA,012558.00,3309.05716,N,11708.73068,W,1,07,1.23,213.8,M,-33.2,M,,*6C
$GPGSA,A,3,09,23,07,08,27,16,30,,,,,,2.15,1.23,1.77*03
$GPGSV,4,1,14,03,13,176,21,05,00,327,14,07,53,305,37,08,27,128,26*7C
$GPGSV,4,2,14,09,74,343,37,16,25,041,21,22,01,167,21,23,58,114,33*7C
$GPGSV,4,3,14,27,27,084,29,28,10,213,15,30,25,275,23,46,48,147,*7A
$GPGSV,4,4,14,48,48,207,31,51,50,162,30*7C
$GPGLL,3309.05716,N,11708.73068,W,012558.00,A,A*79
$GPRMC,012559.00,A,3309.05717,N,11708.73073,W,0.517,,030117,,,A*6D
$GPVTG,,T,,M,0.517,N,0.957,K,A*2B
$GPGGA,012559.00,3309.05717,N,11708.73073,W,1,07,1.23,213.6,M,-33.2,M,,*68
$GPGSA,A,3,09,23,07,08,27,16,30,,,,,,2.15,1.23,1.77*03
$GPGSV,4,1,14,03,13,176,21,05,00,327,,07,53,305,36,08,27,128,25*7B
$GPGSV,4,2,14,09,74,343,36,16,25,041,19,22,01,167,22,23,58,114,33*75
$GPGSV,4,3,14,27,27,084,27,28,10,213,,30,25,275,27,46,48,147,*74
$GPGSV,4,4,14,48,48,207,31,51,50,162,28*75
$GPGLL,3309.05717,N,11708.73073,W,012559.00,A,A*73
$GPRMC,012600.00,A,3309.05710,N,11708.73072,W,0.118,,030117,,,A*6F
$GPVTG,,T,,M,0.118,N,0.219,K,A*21
$GPGGA,012600.00,3309.05710,N,11708.73072,W,1,08,1.23,213.7,M,-33.2,M,,*6F
$GPGSA,A,3,09,23,07,08,27,16,30,03,,,,,2.15,1.23,1.77*00
$GPGSV,4,1,14,03,13,176,21,05,00,327,20,07,53,305,37,08,27,128,25*78
$GPGSV,4,2,14,09,74,343,37,16,25,041,17,22,01,167,21,23,58,114,35*7F
$GPGSV,4,3,14,27,27,084,25,28,10,213,25,30,25,275,31,46,48,147,*76
$GPGSV,4,4,14,48,48,207,32,51,50,162,30*7F
$GPGLL,3309.05710,N,11708.73072,W,012600.00,A,A*7A
